name	longitude	latitude	country	category	relevance	country_iso
Sant Romà de Vila	1.56861	42.53083	Andorra	Church		AD
Sant Romà de les Bons	1.5871	42.53907	Andorra	Church		AD
Sant Romà	1.49807	42.4527	Andorra	Church		AD
Sant Miquel d'Engolasters	1.56008	42.51094	Andorra	Church		AD
Sant Miquel de Fontaneda	1.46489	42.45439	Andorra	Church		AD
Sant Jaume	1.63858	42.58068	Andorra	Church		AD
Sant Esteve	1.49421	42.44038	Andorra	Church		AD
Sant Cristòfol	1.52486	42.5346	Andorra	Church		AD
Eglèsia de Sant Cerni	1.59738	42.56667	Andorra	Church		AD
Sant Cerni	1.50228	42.46905	Andorra	Church		AD
Sant Antoni de la Grella	1.52117	42.52713	Andorra	Church		AD
Oratori del Pont d’Aixovall	1.49225	42.47634	Andorra	Church		AD
Les Fargues	1.60613	42.48988	Andorra	Archaeological Site		AD
Oratori de la Font de Joans	1.48219	42.47766	Andorra	Church		AD
Sant Vicenç d’Enclar	1.49372	42.49571	Andorra	Historical Site		AD
Santuari de Canòlic	1.45342	42.47382	Andorra	Church		AD
Sant Pere Martir	1.54165	42.50891	Andorra	Church		AD
Capella de l’Hospital	1.53385	42.51207	Andorra	Church		AD
Santa Coloma	1.49749	42.49415	Andorra	Church		AD
Za‘bīl	55.30452	25.22402	United Arab Emirates	Palace		AE
Nādī ash Shabāb	55.34949	25.29135	United Arab Emirates	Building		AE
Burj Khalifa	55.2742	25.1972	United Arab Emirates	Building	132	AE
HHHR Tower	55.2808	25.2211	United Arab Emirates	Building		AE
The Address Downtown Burj Dubai	55.2792	25.1939	United Arab Emirates	Building		AE
The Index	55.2778	25.2069	United Arab Emirates	Building		AE
Dubai Museum	55.29717	25.26305	United Arab Emirates	Museum	118	AE
Fujairah Museum	56.33971	25.1337	United Arab Emirates	Museum		AE
Baladīyat al Fujayrah	56.3336	25.12614	United Arab Emirates	Building		AE
Ad Dīwān al Imīrī	56.33386	25.12432	United Arab Emirates	Building		AE
Fujairah Tower	56.3338	25.12118	United Arab Emirates	Building		AE
Fujairah Aviation Training Centre	56.33156	25.11612	United Arab Emirates	Building		AE
Etisalat	56.32882	25.12132	United Arab Emirates	Building	306	AE
Fujairah National Bank	56.32724	25.12268	United Arab Emirates	Building		AE
Al Hayl Castle	56.22389	25.08515	United Arab Emirates	Castle		AE
Majmū‘ah al Fujayrah al Waţanīyah	56.35154	25.1678	United Arab Emirates	Building		AE
Maḩaţţat aş Şafā lil Bitrūl	56.35075	25.15932	United Arab Emirates	Building		AE
Wizārat az Zirā‘ah wa ath Tharwah as Samakīyah	56.35032	25.15898	United Arab Emirates	Building		AE
Wizārat ash Shi’ūn al Islāmīyah wa al Awqāf	56.33765	25.12521	United Arab Emirates	Building		AE
Jam‘īyat al Funūn ash Sha‘bīyah	56.35285	25.14845	United Arab Emirates	Building		AE
Wizārat at Tarbiyah wa at Ta‘līm wa ash Shabāb	56.35402	25.13728	United Arab Emirates	Building		AE
Wikālat al Fujayrah al Waţanīyah lis Safarīyāt	56.35412	25.13625	United Arab Emirates	Building		AE
Wizārat al I‘lām wa ath Thaqāfah	56.354	25.13539	United Arab Emirates	Building		AE
Wizārat at Takhţīţ	56.35216	25.13513	United Arab Emirates	Building		AE
Maḩaţţat ash Sha‘b lil Bitrūl	56.35488	25.1342	United Arab Emirates	Building		AE
Qaşr Sumūw al Ḩākim	56.32221	25.1364	United Arab Emirates	Palace		AE
Imīrtil	56.33655	25.13059	United Arab Emirates	Building		AE
Maḩaţţat al Madīnah lil Bitrūl	56.3455	25.12372	United Arab Emirates	Building		AE
Majmū‘at al Fujayrah al ‘Aqārīyah	56.33118	25.12296	United Arab Emirates	Building		AE
Markaz al Fujayrah at Tijārī	56.33162	25.12116	United Arab Emirates	Building		AE
Maḩaţţat al Mas‘ūd lil Bitrūl	56.34853	25.12226	United Arab Emirates	Building		AE
Şaydalīyat al Fujayrah	56.34929	25.12226	United Arab Emirates	Building		AE
Jam‘īyat al Fujayrah at Ta‘āwunīyah	56.35189	25.12267	United Arab Emirates	Building		AE
Markaz Ri‘āyat ash Shabāb wa Masraḩ al Fujayrah al Qawmī	56.34929	25.15039	United Arab Emirates	Building		AE
Wizārat al ‘Amal wa ash Shi’ūn al Ijtimā‘īyah	56.34161	25.12157	United Arab Emirates	Building		AE
Wizārat aş Şiḩḩah	56.33524	25.12238	United Arab Emirates	Building		AE
Maḩaţţat Bitrūl al Fujayrah	56.31878	25.12139	United Arab Emirates	Building		AE
Al Majlis al ‘Āmm	56.33837	25.13341	United Arab Emirates	Building		AE
Al Jam‘īyah al Hindīyah	55.57778	25.58813	United Arab Emirates	Building		AE
Mutḩaf Umm al Qaywayn al Waţanī	55.57087	25.58417	United Arab Emirates	Museum		AE
Umm al Qaywayn lis Siyāḩah wa as Safr	55.56191	25.58024	United Arab Emirates	Building		AE
Ittişālāt ar Rawḑah	55.56235	25.57683	United Arab Emirates	Building		AE
Sīnamā Ghranāţah	55.56119	25.5709	United Arab Emirates	Building		AE
Markaz at Tanmiyah al Ijtimā‘īyah	55.55503	25.57173	United Arab Emirates	Building		AE
Imārāt as Sūr	55.56053	25.57814	United Arab Emirates	Building		AE
An Nādī al ‘Arabī	55.55971	25.56638	United Arab Emirates	Building		AE
Şālat al Afrāḩ al Aḩlām	55.56376	25.56662	United Arab Emirates	Building		AE
An Nādī al Baḩrī	55.56443	25.56182	United Arab Emirates	Building		AE
Nādī al Fatayāt Bi Umm al Qaywayn	55.56435	25.55932	United Arab Emirates	Building		AE
Hay’at al A‘māl al Khayrīyah	55.54982	25.55919	United Arab Emirates	Building		AE
Masraḩ Umm al Qaywayn al Waţanī	55.55741	25.55081	United Arab Emirates	Building		AE
Ībkū an Najāh	55.54293	25.54394	United Arab Emirates	Building		AE
Adnūk al Abrāj	55.54066	25.54189	United Arab Emirates	Building		AE
Ittişālāt al Ḩumrah	55.54058	25.53853	United Arab Emirates	Building		AE
Ḩaras as Sawāḩil wa al Ḩudūd	55.5412	25.55451	United Arab Emirates	Building		AE
Maḩaţţat Ībkū al Ghibb	55.57506	25.58158	United Arab Emirates	Building		AE
Imārāt al Qawārib	55.5757	25.58152	United Arab Emirates	Building		AE
Imārāt al Ḩadīqah al ‘Āmmah	55.56547	25.58535	United Arab Emirates	Building		AE
Imārāt al Fasht	55.57643	25.58578	United Arab Emirates	Building		AE
Nādī Umm al Qaywayn al Jawwī	55.65376	25.58186	United Arab Emirates	Building		AE
Nādī Umm al Qaywayn lir Rimāyah	55.65816	25.58124	United Arab Emirates	Building		AE
Nādī Umm al Qaywayn li Sibāq as Sayyārāt	55.66148	25.57294	United Arab Emirates	Building		AE
Mawqi‘ ad Dawr al Atharī	55.62757	25.52794	United Arab Emirates	Archaeological Site		AE
Mawqi‘ al Abraq al Atharī	55.55215	25.48757	United Arab Emirates	Archaeological Site		AE
Qaşr al Baḩr	54.40701	24.47245	United Arab Emirates	Palace		AE
Nādī Abū Z̧aby lis Sayyidāt	54.30705	24.45745	United Arab Emirates	Building		AE
Nādī Adamā	54.32408	24.45845	United Arab Emirates	Building		AE
Al Hīnah al ‘Āmmah lil Ma‘lūmāt	54.33394	24.4553	United Arab Emirates	Building		AE
Nādī al Marīnā ar Riyāḑī	54.33642	24.4508	United Arab Emirates	Building		AE
Sharikat an Nafţ al Yābānīyah	54.34278	24.46862	United Arab Emirates	Building		AE
Adkaw	54.34384	24.47342	United Arab Emirates	Building		AE
Qaşr al Ḩişn	54.35483	24.4823	United Arab Emirates	Palace		AE
Al Majma‘ ath Thaqāfī	54.35748	24.48251	United Arab Emirates	Building		AE
Dānah Blāzā	54.34652	24.47278	United Arab Emirates	Building		AE
Markaz al Khālidīyah lit Tasawwuq	54.34745	24.47412	United Arab Emirates	Building		AE
Nādī Abū Z̧aby ad Dawlī lir Riyāḑāt al Baḩrīyah	54.32423	24.47442	United Arab Emirates	Building		AE
Sīnī Stār Sīnamā	54.32241	24.47661	United Arab Emirates	Building		AE
Nādī Turāth al Imārāt	54.34173	24.45848	United Arab Emirates	Building		AE
An Nādī al ‘Ilmī	54.34288	24.45696	United Arab Emirates	Building		AE
Jam‘īyat Abū Z̧aby at Ta‘āwunīyah	54.35925	24.46114	United Arab Emirates	Building		AE
Qaşr al Baţīn	54.36856	24.45147	United Arab Emirates	Palace		AE
Maktabat at Turāth	54.35257	24.47248	United Arab Emirates	Building		AE
Qaşr al Manhal	54.3623	24.47514	United Arab Emirates	Palace		AE
Sīnamā al Māssah	54.36257	24.48871	United Arab Emirates	Building		AE
Sīnamā al Waţanīyah	54.36893	24.49217	United Arab Emirates	Building		AE
Sīnamā Aldawrādaw	54.37061	24.49187	United Arab Emirates	Building		AE
Sīnamā al Māriyā	54.36732	24.49421	United Arab Emirates	Building		AE
Al Markaz al Hindī al Ijtimā‘ī	54.3712	24.50046	United Arab Emirates	Building		AE
Jam‘īyat aş Şayyādīn	54.37421	24.51437	United Arab Emirates	Building		AE
Kids Action Zone	54.37369	24.52001	United Arab Emirates	Building		AE
Al Maslakh al Alī	54.37559	24.52104	United Arab Emirates	Building		AE
Nādī ash Shaykh Zāyid	54.38963	24.51368	United Arab Emirates	Building		AE
Nādī Dā’irat al Mā’ wa al Kahrabā’	54.38321	24.50658	United Arab Emirates	Building		AE
An Nādī as Siyāḩī	54.38006	24.50221	United Arab Emirates	Building		AE
Nādī Abū Z̧aby al Baḩrī lil Yukhūt	54.38018	24.50071	United Arab Emirates	Building		AE
Jamī’at Abū Z̧aby at Ta‘āwunīyah	54.38399	24.49698	United Arab Emirates	Building		AE
Century Cinema	54.38377	24.49532	United Arab Emirates	Building		AE
Sharikat al Khidmāt al Handasīyah	54.37924	24.49118	United Arab Emirates	Building		AE
Bank ad Dam al Markazī	54.38115	24.48922	United Arab Emirates	Building		AE
Sharikat Abū Z̧aby lit Tawzī‘	54.37983	24.4846	United Arab Emirates	Building		AE
Al Markaz al Hindī al Islāmī	54.38098	24.48499	United Arab Emirates	Building		AE
Hay’at al Mā’ wa al Kahrabā’	54.37805	24.4838	United Arab Emirates	Building		AE
Al Ḩafr al Waţanīyah	54.37596	24.49175	United Arab Emirates	Building		AE
Ḩabīb Bank	54.36574	24.48732	United Arab Emirates	Building		AE
Markaz Raqābat Aghdhiyah wa al Bī’ah	54.37667	24.49047	United Arab Emirates	Building		AE
Aş Şinā‘āt al Waţanīyah	54.37282	24.49096	United Arab Emirates	Building		AE
Ay Jay Zīwrīkh	54.36933	24.47744	United Arab Emirates	Building		AE
Adnūk lit Tawzī‘	54.37476	24.49279	United Arab Emirates	Building		AE
Al Markaz as Sūdānī ath Thaqāfī al Ijtimā‘ī	54.37579	24.48075	United Arab Emirates	Building		AE
Red Crescent Society	54.36823	24.48556	United Arab Emirates	Building		AE
Markaz Kayrlā al Ijtimā‘ī	54.36986	24.48408	United Arab Emirates	Building		AE
Jam‘īyat al Mar’ah al Hindīyah	54.36939	24.47447	United Arab Emirates	Building		AE
Mukhtabar al Baḩth az Zirā‘ī	54.35343	24.47132	United Arab Emirates	Building		AE
Al Imārāt lil I‘lām	54.38606	24.45952	United Arab Emirates	Building		AE
Al Masraḩ al Waţanī	54.3879	24.45422	United Arab Emirates	Building		AE
Nādī al Jazīrah al Riyāḑī ath Thaqāfī	54.3915	24.45218	United Arab Emirates	Building		AE
Markaz al Wathā’iq wa Buḩūth al Istrātijīyah	54.39389	24.45703	United Arab Emirates	Building		AE
Nādī al Waḩdah ar Riyāḑī ath Thaqāfī	54.3743	24.47012	United Arab Emirates	Building		AE
Jam‘īyat al Hilāl al Aḩmar	54.37947	24.47031	United Arab Emirates	Building		AE
Wikālat Inbā’ al Imārāt	54.38967	24.46209	United Arab Emirates	Building		AE
Kanīsat al Qiddīs Yusuf	54.38552	24.44826	United Arab Emirates	Church		AE
Nādī Abū Z̧aby lil Farūsīyah	54.37481	24.44368	United Arab Emirates	Building		AE
Qaşr al Mushrif	54.37615	24.44995	United Arab Emirates	Palace		AE
Jam‘īyat al Khālidīyah at Ta‘āwunīyah	54.36958	24.44271	United Arab Emirates	Building		AE
Qaşr ash Shāţi’	54.39458	24.42453	United Arab Emirates	Palace		AE
Markaz ‘Abd Allāh Bin ‘Utaybah	54.39538	24.43121	United Arab Emirates	Building		AE
Jam‘īyat al Mushrif at Ta‘āwunīyah	54.40759	24.42623	United Arab Emirates	Building		AE
Idhā‘ah wa Tilifizyūn Abū Z̧aby	54.38912	24.45653	United Arab Emirates	Building		AE
Kanīsat al Qiddīs Andrū	54.38798	24.44752	United Arab Emirates	Church		AE
Nādī Abū Z̧aby lit Taḩaddī ar Riyāḑī	54.38265	24.44518	United Arab Emirates	Building		AE
Nādī al Jawlf	54.38214	24.44324	United Arab Emirates	Building		AE
Markaz aş Şinā‘āt al Yadawīyah wa al Ḩirafīyah	54.38938	24.43847	United Arab Emirates	Building		AE
Al Ittiḩād an Nisā’ī al ‘Āmm	54.39051	24.44057	United Arab Emirates	Building		AE
Şālat al Mushrif lil A‘rās	54.39771	24.43964	United Arab Emirates	Building		AE
Al Markaz al Urdunnī at Ta‘āwunī	54.43089	24.43216	United Arab Emirates	Building		AE
Warshat Baladīyat Abū Z̧aby	54.43679	24.43084	United Arab Emirates	Building		AE
Ma‘riḑ Īdiks	54.43713	24.42067	United Arab Emirates	Building		AE
Al Mu’assasah al ‘Āmmah lil Ma‘āriḑ	54.44213	24.41993	United Arab Emirates	Building		AE
Minaşşat al Iḩtifālāt wa al Ma‘āriḑ	54.43663	24.41804	United Arab Emirates	Building		AE
Hay’at al Huwīyah al Waḩdah	54.44281	24.41822	United Arab Emirates	Building		AE
Şālat Abū Z̧aby lit Tazalluj	54.45843	24.41655	United Arab Emirates	Building		AE
Şālat ash Shaykh Khalīfah lil Būlīnj	54.4613	24.41476	United Arab Emirates	Building		AE
Al Hay’ah al ‘Āmmah liţ Ţayarān al Madanī	54.45004	24.42225	United Arab Emirates	Building		AE
Mukhtabar Qism aţ Ţuruq	54.44619	24.4246	United Arab Emirates	Building		AE
Hay’ah al ‘Āmmah lil Khidmāt aş Şiḩḩīyah	54.44573	24.42308	United Arab Emirates	Building		AE
Sharikat Abū Z̧aby al Waţanīyah lil Fanādiq	54.44635	24.42166	United Arab Emirates	Building		AE
Al Hay’ah al ‘Āmmah lil Baladīyāt	54.44748	24.42075	United Arab Emirates	Building		AE
Al Arshīf al Waţanī	54.44711	24.41956	United Arab Emirates	Building		AE
Al Mu’assasah al Waţanīyah lis Siyāḩah wa al Fanādiq	54.44476	24.42001	United Arab Emirates	Building		AE
Nādī Ḑubbāţ ash Shurţah	54.47407	24.42881	United Arab Emirates	Building		AE
Nādī aş Şayd wa al Furūsīyah	54.47979	24.42239	United Arab Emirates	Building		AE
Şālat Zāyid al Kubrá lil Afrāḩ	54.49313	24.42416	United Arab Emirates	Building		AE
Al Ma‘had al Bitrūlī	54.4988	24.41802	United Arab Emirates	Building		AE
Nādī Ḑubbāţ al Quwwāt al Musallaḩah	54.47413	24.40153	United Arab Emirates	Building		AE
Maktab Ţawāri’ al Kahrabā’	54.37343	24.4551	United Arab Emirates	Building		AE
Sīnamā Rakas bi as Sayyārāt	55.42334	25.23724	United Arab Emirates	Building		AE
Maktabat ar Rāshidīyah al ‘Āmmah	55.3926	25.22372	United Arab Emirates	Building		AE
Jamī‘at al Işlāḩ	55.36087	25.23637	United Arab Emirates	Building		AE
Markaz Dubayy lil Bawlīngh	55.33652	25.25588	United Arab Emirates	Building		AE
Idārat aţŢayarān al Madanī - Dubayy	55.35531	25.24801	United Arab Emirates	Building		AE
Al Markaz aş Şīnī at Tijārī	55.34747	25.27477	United Arab Emirates	Building		AE
Nādī al Ahlī	55.36002	25.28057	United Arab Emirates	Building		AE
Jam‘īyat al Işlāḩ	55.36602	25.27702	United Arab Emirates	Building		AE
Maktabat Hawr al ‘Anz al ‘Āmmah	55.35032	25.28483	United Arab Emirates	Building		AE
Masraḩ Jam‘īyat Dubayy lil Fawlūklawr	55.3503	25.28782	United Arab Emirates	Building		AE
Sīnamā Dubayy	55.33076	25.27124	United Arab Emirates	Building		AE
Madrasat al Aḩmadīyah	55.2951	25.26832	United Arab Emirates	Museum		AE
Sīnamā Dayrah	55.31573	25.26555	United Arab Emirates	Building		AE
Al Ghālīriyā	55.30486	25.2791	United Arab Emirates	Building		AE
Bayt ash Shaykh Sa‘īd Āl Maktūm	55.2901	25.26824	United Arab Emirates	Museum		AE
Sīnamā Blāzā	55.28932	25.264	United Arab Emirates	Building		AE
Dīwān Sumū al Ḩākim	55.29867	25.26459	United Arab Emirates	Building		AE
Markaz al Ghurayr	55.31784	25.26791	United Arab Emirates	Building		AE
Ḩişn al Fuhaydī	55.29729	25.26357	United Arab Emirates	Museum		AE
As Sā‘ah	55.32652	25.25871	United Arab Emirates	Monument		AE
Ittişālāt	55.31464	25.26318	United Arab Emirates	Building		AE
Mujamma‘ al Wizārāt	55.32799	25.26318	United Arab Emirates	Building		AE
Markaz Ḩamar‘ayn	55.33014	25.26755	United Arab Emirates	Building		AE
Markaz Ţayarān Dubayy (Danātā)	55.3306	25.25887	United Arab Emirates	Building		AE
Jam‘īyat Dubayy lil Al‘āb al Mā’īyah wa Nādī at Tazalluj ‘Alá al Miyāh	55.33257	25.20588	United Arab Emirates	Building		AE
Sīnamā Starānd	55.30875	25.25145	United Arab Emirates	Building		AE
Al Mukhtabar al Markazī	55.30849	25.24328	United Arab Emirates	Building		AE
Sharikat Dubayy lil Kahrabā’ - Maḩaţţat Tawlīd Ghāzīyah	55.28008	25.24498	United Arab Emirates	Building		AE
Qaşr aḑ Ḑiyāfah	55.26796	25.2412	United Arab Emirates	Historical Site		AE
Nādī Dubayy Mārīn	55.26256	25.23436	United Arab Emirates	Building		AE
Markaz Dubayy lil Gaţs	55.26251	25.23352	United Arab Emirates	Building		AE
Markaz Dubayy lil Funūn	55.26459	25.23413	United Arab Emirates	Building		AE
Jam‘īyat al Fanūn ash Sha‘bīyah	55.28057	25.23176	United Arab Emirates	Building		AE
Markaz Dubayy at Tijārī ad Dawlī	55.28883	25.2277	United Arab Emirates	Building		AE
Markaz ash Shāţi’	55.259	25.22487	United Arab Emirates	Building		AE
Markaz al Jumayrā	55.26319	25.23083	United Arab Emirates	Building		AE
Nādī al Jūlf - Khawr Dubayy	55.3355	25.24398	United Arab Emirates	Building		AE
Sīnamā an Naşr	55.312	25.24194	United Arab Emirates	Building		AE
Nādī an Naşr	55.31216	25.23964	United Arab Emirates	Building		AE
An Nādī al Hindī ar Riyāḑī	55.316	25.23962	United Arab Emirates	Building		AE
Hay’at Kahrabā’ wa Miyāh Dubayy	55.32411	25.22734	United Arab Emirates	Building		AE
Nādī Shurţat Dubayy	55.32538	25.22357	United Arab Emirates	Building		AE
Nādī al Waşl	55.31724	25.2176	United Arab Emirates	Building		AE
Nādī Dubayy ar Rīfī	55.32529	25.17843	United Arab Emirates	Building		AE
Nādī ar Rakbī	55.32727	25.18174	United Arab Emirates	Building		AE
Kanīsat ath Thālūth al Aqdas	55.31848	25.23791	United Arab Emirates	Church		AE
Sharikat al Imārāt al Intāj al Nafţ (Iybkaw)	55.3148	25.2323	United Arab Emirates	Building		AE
Markaz Dubayy lil Furūsīyah	55.30397	25.15171	United Arab Emirates	Building		AE
Al Khalīj Tāymz	55.24442	25.17229	United Arab Emirates	Building		AE
Al Bayān	55.25427	25.18898	United Arab Emirates	Building		AE
Jarīdat al Bayān	55.25286	25.18774	United Arab Emirates	Building		AE
Sharikat Nafţ Dubayy	55.26413	25.21024	United Arab Emirates	Building		AE
Nādī al Hīltawn	55.23827	25.20093	United Arab Emirates	Building		AE
Maktabat aş Şafā al ‘Āmmah	55.23961	25.18808	United Arab Emirates	Building		AE
Nādī Dubayy lil Qawārib ash Shirā‘īyah	55.21721	25.17485	United Arab Emirates	Building		AE
Maktabat Umm Suqaym al ‘Āmmah	55.20007	25.15262	United Arab Emirates	Building		AE
Nādī ash Shiţranj	55.32051	25.2672	United Arab Emirates	Building		AE
An Nuşb at Tadhkārī	55.3123	25.26604	United Arab Emirates	Monument		AE
Banāyat al Lu’lu’ah	55.30519	25.26784	United Arab Emirates	Building		AE
Sharikat Kahrabā’ Dubayy	55.31557	25.26354	United Arab Emirates	Building		AE
Khidmāt Mawāni’ Dubayy	55.30192	25.2651	United Arab Emirates	Building		AE
Warshat Ḩukūmat Dubayy	55.30971	25.24967	United Arab Emirates	Building		AE
Sharikat Maţāḩin ad Daqīq al Waţanīyah	55.28499	25.26198	United Arab Emirates	Building		AE
Qaryat al Gawş	55.29198	25.27063	United Arab Emirates	Building		AE
Qaryat ath Turāth	55.29116	25.27013	United Arab Emirates	Building		AE
Bayt ash Shaykh ‘Ubayd Bin Thānī	55.29059	25.26859	United Arab Emirates	Historical Site		AE
Murabba‘at ash Shindaghah	55.29031	25.26525	United Arab Emirates	Historical Site		AE
Al Burj al Gharbī	55.29341	25.26458	United Arab Emirates	Historical Site		AE
Bayt al Wakīl	55.29379	25.26473	United Arab Emirates	Historical Site		AE
Sūr Dubayy	55.29927	25.26428	United Arab Emirates	Historical Site		AE
Dār al Khaţţ al ‘Arabī	55.29931	25.26454	United Arab Emirates	Historical Site		AE
Dar an Nadwah	55.30013	25.26456	United Arab Emirates	Historical Site		AE
Bayt at Turāth	55.29485	25.26854	United Arab Emirates	Historical Site		AE
Matḩaf al Baladīyah	55.2978	25.26783	United Arab Emirates	Museum		AE
Airport Expo Dubai	55.38145	25.23772	United Arab Emirates	Building		AE
Dubai Ladies Club	55.23851	25.20262	United Arab Emirates	Building		AE
Children’s City	55.3286	25.23595	United Arab Emirates	Building		AE
Jumeirah Archaeological Site	55.24188	25.19694	United Arab Emirates	Archaeological Site		AE
Sheikh Saeed House	55.28766	25.26403	United Arab Emirates	Historical Site		AE
Aflām al Ittiḩād	55.43885	25.39084	United Arab Emirates	Building		AE
Istūdiyūhāt ‘Ajmān al Khāşşah	55.43804	25.38923	United Arab Emirates	Building		AE
Nādī ‘Ajmān ar Riyāḑī	55.45195	25.39285	United Arab Emirates	Building		AE
Qaşr az Zāhir	55.43799	25.40061	United Arab Emirates	Palace		AE
Jam‘īyat Umm al Mu’minīn	55.43647	25.3999	United Arab Emirates	Building		AE
‘Ajmān Iksbū	55.47219	25.39033	United Arab Emirates	Building		AE
Minţaqat ‘Ajmān at Ta‘līmīyah	55.42914	25.39625	United Arab Emirates	Building		AE
Matḩaf ‘Ajmān al Waţanī	55.44512	25.41397	United Arab Emirates	Museum		AE
Expo Center Sharjah	55.37077	25.31129	United Arab Emirates	Building		AE
Chinamax	55.37255	25.31092	United Arab Emirates	Building		AE
World Trade Club	55.3796	25.31651	United Arab Emirates	Building		AE
Al Fardan Center	55.38213	25.32381	United Arab Emirates	Building		AE
Petroleum Council	55.37619	25.34222	United Arab Emirates	Building		AE
Heritage Area	55.38363	25.35749	United Arab Emirates	Historical Site		AE
Sharjah City Center	55.39361	25.32469	United Arab Emirates	Building		AE
Sharjah Sports Club	55.42046	25.33281	United Arab Emirates	Building		AE
Sharjah Ladies Club	55.39625	25.37781	United Arab Emirates	Building		AE
Culture Palace	55.42971	25.35608	United Arab Emirates	Palace		AE
Sharjah Driving Institute	55.44696	25.35667	United Arab Emirates	Building		AE
Sharjah Officers’ Club	55.44433	25.35919	United Arab Emirates	Building		AE
Sharjah Cultural Chess Club	55.43283	25.36724	United Arab Emirates	Building		AE
Al Sha’ab Sports Club	55.42415	25.37309	United Arab Emirates	Building		AE
Sharjah Library	55.46654	25.28155	United Arab Emirates	Building		AE
Sharjah University Hall	55.47176	25.27811	United Arab Emirates	Building		AE
Star Cineplex	55.39236	25.324	United Arab Emirates	Building		AE
Grand Buheirah Cinema	55.37492	25.33243	United Arab Emirates	Building		AE
Metro Cinema	55.37477	25.32952	United Arab Emirates	Building		AE
The Planetarium	55.37395	25.33758	United Arab Emirates	Museum		AE
Islamic Museum	55.38466	25.35795	United Arab Emirates	Museum		AE
Sharjah Institute for Theatrical Arts	55.38521	25.35629	United Arab Emirates	Building		AE
Al Hisn	55.38645	25.35863	United Arab Emirates	Historical Site		AE
Sharjah Art Museum	55.38711	25.36136	United Arab Emirates	Museum		AE
Concord Cinema	55.39444	25.35978	United Arab Emirates	Building		AE
Al Hamra Cinema	55.39279	25.365	United Arab Emirates	Building		AE
Odeon Cinema	55.39608	25.36506	United Arab Emirates	Building		AE
Sharjah Police Museum	55.40026	25.36272	United Arab Emirates	Museum		AE
Archaeological Museum	55.42386	25.34821	United Arab Emirates	Museum		AE
Science Museum	55.42481	25.34969	United Arab Emirates	Museum		AE
Al Mahata Museum	55.39603	25.34594	United Arab Emirates	Museum		AE
Bait Khalid Bin Ebrahim al Yousuf	55.38136	25.35739	United Arab Emirates	Historical Site		AE
Costumes and Cosmetics Museum	55.38134	25.35774	United Arab Emirates	Museum		AE
Numismatics Museum	55.38098	25.35764	United Arab Emirates	Museum		AE
Popular Medicine Museum	55.38114	25.35781	United Arab Emirates	Museum		AE
Traditional Jewelry Museum	55.38149	25.35754	United Arab Emirates	Museum		AE
Traditional Games House	55.38126	25.3576	United Arab Emirates	Museum		AE
Arts Square	55.38325	25.35877	United Arab Emirates	Historical Site		AE
Bait al Naboodah	55.38416	25.35801	United Arab Emirates	Historical Site		AE
Majlis of Ibrahim Mohammed al Midfa	55.38349	25.35892	United Arab Emirates	Historical Site		AE
Eslah Museum	55.38367	25.35894	United Arab Emirates	Museum		AE
Maritime Museum	55.38353	25.35898	United Arab Emirates	Museum		AE
Restoration Museum	55.38374	25.35912	United Arab Emirates	Museum		AE
Sharjah Art Galleries	55.38717	25.36224	United Arab Emirates	Building		AE
Bayt ash Shaykh Juma‘ah Āl Maktūm	55.2897	25.26697	United Arab Emirates	Historical Site		AE
Louvre Abu Dhabi	54.39854	24.53391	United Arab Emirates	Museum	57	AE
Badrah Town Houses	55.04754	24.94984	United Arab Emirates	Building		AE
Tappeh-ye Mondī Gak	65.52417	31.90306	Afghanistan	Archaeological Site		AF
Haoz-i-Mir Daud	62.21667	34.15	Afghanistan	Building		AF
Āteshkadeh-ye Sorkh Kowtal	68.56667	36.05	Afghanistan	Archaeological Site		AF
Gurg Tapah	66.80227	36.83597	Afghanistan	Monument		AF
Qaşr-e Tāj Bēg	69.11357	34.45478	Afghanistan	Palace		AF
Ta‘mīr-e Maīdān-e Hawā’ī Kuhnah	65.75444	31.61858	Afghanistan	Building		AF
Dād Muḩammad Kōrūnah	68.12587	32.0567	Afghanistan	Building		AF
Ḩaẕratē ‘Alī Chambar	68.00617	32.20489	Afghanistan	Building		AF
Kabul Museum	69.12003	34.46706	Afghanistan	Museum		AF
Naz̧ar Gāh-e Abū al Faẕl	69.11989	34.49655	Afghanistan	Building		AF
Naz̧ar Gāh-e Dawāz Deh-e Imām	69.11981	34.49586	Afghanistan	Building		AF
Qal‘ah-ye Wakīl	69.04785	34.48497	Afghanistan	Castle		AF
Naz̧ar Gāh-e ‘Alī Malang	69.16682	34.47132	Afghanistan	Building		AF
Naz̧ar Jāy-e Ḩaẕrat ‘Abbās	69.11113	34.4674	Afghanistan	Building		AF
Qaşr-e Chihil Sutūn	69.15224	34.46731	Afghanistan	Palace		AF
Qaşr-e Dārulāmān	69.11956	34.46524	Afghanistan	Palace		AF
Shāh Mardān	65.22377	36.94381	Afghanistan	Building		AF
Uţāq-e Muḩāfiz̧-e Barq	69.47749	34.51908	Afghanistan	Building		AF
Aq Kupruk	66.84842	36.09204	Afghanistan	Historical Site		AF
Darra-i Kur	69.99265	36.77746	Afghanistan	Archaeological Site		AF
Such	70.84213	36.78074	Afghanistan	Archaeological Site		AF
Shamarq	68.75244	35.89892	Afghanistan	Archaeological Site		AF
Ta‘amīr-e Rādīō Afghānistān	69.35214	34.53876	Afghanistan	Building		AF
Ta‘mīr-e Sālih Muḩammad	69.19666	34.53917	Afghanistan	Building		AF
Ta‘mīr-e Mumtāz	69.19625	34.54049	Afghanistan	Building		AF
Sīnimā Iqbāl	69.22581	34.50931	Afghanistan	Building		AF
Wazārat-e Āb wa Barq	69.19986	34.5172	Afghanistan	Building		AF
Wazārat-e Fawāyid ‘Amah	69.20294	34.52972	Afghanistan	Building		AF
Wazārat-e Saḩat ‘Aāmah	69.20419	34.5266	Afghanistan	Building		AF
Sīnimā-ye Aryōb	69.13105	34.53549	Afghanistan	Building		AF
Sīnimā-ye Pārk	69.16917	34.5347	Afghanistan	Building		AF
Maqar Shōrā-ye Inqilābī	69.18109	34.52665	Afghanistan	Building		AF
Kamyatah-ye Markazī	69.1834	34.52264	Afghanistan	Building		AF
Malālaī Zīz̲h̲ Natūn	69.16163	34.53063	Afghanistan	Building		AF
Sīnimā-ye Bahāristān	69.14409	34.53203	Afghanistan	Building		AF
Sīnimā-ye Barī Kōt	69.15002	34.51025	Afghanistan	Building		AF
Dê Yapō-ye Kārtah-ye Chahār	69.14305	34.51191	Afghanistan	Building		AF
Sīnimā-ye Behzād	69.17783	34.51085	Afghanistan	Building		AF
Sīnimā-ye Pāmir	69.17196	34.51367	Afghanistan	Building		AF
Idārah-ye ‘Umūmī Jīowdīzī Bazī wa Kārtōgrāfī	69.18199	34.52162	Afghanistan	Building		AF
Iţfā’yah	69.18199	34.52049	Afghanistan	Building		AF
Ta‘mīr-e Shār Wālī	69.17603	34.52025	Afghanistan	Building		AF
Bāgh Kōṯē	69.02938	34.52261	Afghanistan	Palace		AF
Arg	69.17883	34.52422	Afghanistan	Palace		AF
United Nations Office on Drugs and Crime	69.15392	34.53935	Afghanistan	Building	166	AF
Ministry of Border, Ethnic and Tribal Affairs	69.19532	34.53864	Afghanistan	Building		AF
Ministry of Border, Tribal and Ethics Affairs	69.19529	34.53863	Afghanistan	Building		AF
Herat Government Office	62.2163	34.35018	Afghanistan	Building		AF
Presidential Palace	69.17883	34.52422	Afghanistan	Castle		AF
Supreme Court Building	69.1941	34.53782	Afghanistan	Building		AF
National Assembly	69.12039	34.46193	Afghanistan	Building	78	AF
Ministry of Finance	69.18124	34.52004	Afghanistan	Building		AF
Ministry of Higher Education	69.1376	34.51248	Afghanistan	Building		AF
Ministry of Public Health	69.19186	34.53648	Afghanistan	Building		AF
Ministry of Commerce and Industry	69.14291	34.49772	Afghanistan	Building		AF
Pul-e-Khumri Hydroelectric Power Plant	68.71	35.9416	Afghanistan	Building		AF
Attorney General Office	69.16576	34.53865	Afghanistan	Building		AF
Ministry of Justice Building	69.17977	34.51957	Afghanistan	Building		AF
Marble Palace	69.16611	34.53308	Afghanistan	Palace		AF
Darul Aman Palace	69.1193	34.46522	Afghanistan	Building	62	AF
National Museum of Afghanistan	69.12	34.4675	Afghanistan	Museum		AF
Ministry of the Interior	69.16746	34.52836	Afghanistan	Building		AF
Ministry of Hajj and Religious Affairs	69.16612	34.53305	Afghanistan	Building		AF
National Archives	69.16795	34.52469	Afghanistan	Building		AF
Afghanistan National Data Center	69.17556	34.51928	Afghanistan	Building		AF
Radio Television Afghanistan	69.1868	34.53326	Afghanistan	Building		AF
Ministry of Energy and Water	69.13018	34.47619	Afghanistan	Building		AF
Ministry of Economy	69.16609	34.53297	Afghanistan	Building		AF
Ministry of Communications Tower	69.17543	34.51892	Afghanistan	Building		AF
Ministry of Information and Culture	69.17462	34.51947	Afghanistan	Building		AF
Ministry of Rural Rehabilitation and Development	69.1662	34.53315	Afghanistan	Building		AF
Ministry of Agriculture	69.13949	34.52123	Afghanistan	Building		AF
Kabul Police Academy	69.1156	34.53557	Afghanistan	Building		AF
Stor Palace	69.17675	34.5252	Afghanistan	Palace		AF
Arg Presidential Palace	69.17937	34.52401	Afghanistan	Building		AF
Clarence House	-61.76219	17.01006	Antigua and Barbuda	Palace	60	AG
Serendipity Apartments	-61.83175	17.13163	Antigua and Barbuda	Building		AG
Saint George’s Church	-61.78755	17.12876	Antigua and Barbuda	Church		AG
Valley Church	-61.88954	17.05468	Antigua and Barbuda	Church		AG
Sion Hill Church	-61.72829	17.08077	Antigua and Barbuda	Church		AG
Estate Hope Art Studio	-63.06577	18.21814	Anguilla	Museum		AI
Heritage Museum Collection	-62.99463	18.23232	Anguilla	Museum		AI
Butrint	20.02121	39.74613	Albania	Archaeological Site		AL
Sveta Marenë	20.95	40.88333	Albania	Church		AL
Sveta Bllashtonjë	20.95	40.83333	Albania	Church		AL
Kalaja e Rozafatit	19.49361	42.04639	Albania	Castle		AL
Orthodox Church of Borova	20.6509	40.31173	Albania	Church		AL
St. Trinity Church	19.94453	40.70778	Albania	Church		AL
Ali Pasha Castle	19.79066	40.06231	Albania	Castle		AL
Vasiliqia's Church	19.79438	40.06245	Albania	Church		AL
Himara Castle	19.72929	40.11625	Albania	Castle		AL
Church of All Saints	19.73414	40.11746	Albania	Church		AL
Berat Castle	19.94575	40.70847	Albania	Castle		AL
National Iconographic Museum Onufri	19.94532	40.70925	Albania	Museum		AL
Church of St. Sophia	19.94548	40.7097	Albania	Church		AL
St. George Church	19.94669	40.70651	Albania	Church		AL
Church of St. Demetrios	19.94697	40.70735	Albania	Church		AL
Ethnographic Museum	19.95061	40.70771	Albania	Museum		AL
Saint Demetrius Orthodox Cathedral	19.95632	40.70389	Albania	Church		AL
Church of St. Theodore	19.94663	40.70997	Albania	Church		AL
Churh of St. Ilias	19.95029	40.71104	Albania	Church		AL
Church of St. Blachernae	19.94467	40.70908	Albania	Museum		AL
St. Nicholas Church	19.94421	40.70908	Albania	Church		AL
St. John the Evangelist	19.94667	40.70882	Albania	Church		AL
St. Michael	19.94673	40.70484	Albania	Church		AL
St. Spyridon	19.94679	40.70237	Albania	Church		AL
St. Thomas' Church	19.94994	40.70296	Albania	Church		AL
Halveti Teqe	19.95255	40.70595	Albania	Monument		AL
Mangalem Quarter	19.94966	40.70515	Albania	Historical Site		AL
Phoinike	20.05593	39.91323	Albania	Archaeological Site		AL
Apollonia (Poian)	19.47245	40.72163	Albania	Archaeological Site		AL
National Historical Museum(Albania)	19.8174	41.32944	Albania	Museum		AL
National History Museum	19.8174	41.32944	Albania	Museum		AL
National Museum of History	19.8174	41.32944	Albania	Museum		AL
Shen Mitri	20.69808	40.32557	Albania	Church		AL
National Archaeological Museum - Muzeu Arkeologjik Kombëtar	19.82208	41.31833	Albania	Museum		AL
Kisha e Shën Thanasit	19.42823	40.50756	Albania	Church		AL
Lapidari Ali Demi	19.50798	40.43642	Albania	Monument		AL
Varri i Memit	19.67255	42.61581	Albania	Monument		AL
Mesheçi-Marinasi	19.44985	40.78571	Albania	Church		AL
T’alin	43.8515	40.33893	Armenia	Historical Site		AM
Amberd	44.23328	40.39172	Armenia	Historical Site		AM
Karmir Blur	44.46778	40.14417	Armenia	Archaeological Site		AM
Khach’k’arach’atur Episkoposi	45.02087	39.95569	Armenia	Monument		AM
Khach’k’arots’adeghi	45.02649	39.95709	Armenia	Monument		AM
Jghuna Surb Astvatsatsin	45.02368	39.95569	Armenia	Church		AM
Yerkrord Ashkharhamartum Zohvatsneri	45.0473	39.82507	Armenia	Monument		AM
Hovhannes Surb	45.04449	39.83612	Armenia	Church		AM
Hort’uni	45.05408	39.86389	Armenia	Church		AM
Spitaki Erkrasharzhi Zoherin	45.04169	39.81952	Armenia	Monument		AM
Sevak P.	45.04169	39.82233	Armenia	Monument		AM
Step’anos Surb	45.00568	39.90692	Armenia	Church		AM
Vahrami	45.00568	39.9057	Armenia	Monument		AM
Vardi	45.00568	39.90832	Armenia	Monument		AM
Tiknants’ Tikin Zazayi	45.00568	37.93048	Armenia	Monument		AM
Partizaki	45.03888	39.94733	Armenia	Church		AM
Astvatsatsin Surb	45.07507	39.93329	Armenia	Church		AM
Hazarap’rkich’	45.01111	39.8125	Armenia	Church		AM
Aghjkaberd	45.21393	39.78192	Armenia	Historical Site		AM
Yerkrord Ashkharhamartum Ev Arts’akhyan Paterazmum Zohvatsneri	45.02649	39.82928	Armenia	Monument		AM
Mariam Astvatsatsin Surb	45.02508	39.83209	Armenia	Church		AM
Berd	45.01111	39.8139	Armenia	Archaeological Site		AM
Kiklopyan	45.2279	39.80548	Armenia	Historical Site		AM
Chgnavori	45.21112	39.80408	Armenia	Church		AM
Ulnots’i	45.2251	39.80829	Armenia	Monument		AM
Averakneri	45.20428	39.90692	Armenia	Monument		AM
Kapuyt	45.2417	39.92371	Armenia	Historical Site		AM
Selimi	45.23608	39.93189	Armenia	Monument		AM
Noroberd	45.13348	39.81811	Armenia	Historical Site		AM
Sargis Surb	45.11249	39.80548	Armenia	Church		AM
Kech’uti	45.13208	39.83612	Armenia	Monument		AM
Martoyi	45.2417	39.88348	Armenia	Monument		AM
Zhamtun	45.23053	39.86249	Armenia	Church		AM
Orbelyan Ch’esar ishkhani Darpas	45.23328	39.86249	Armenia	Monument		AM
Ch’ivayi	45.12231	39.78332	Armenia	Church		AM
Jndrakhach’	45.18189	39.76532	Armenia	Church		AM
K’arayr	45.1709	39.7973	Armenia	Church		AM
Khach’k’arach’i Tak	45.1875	39.7279	Armenia	Monument		AM
Tstsakhach’i	45.20428	39.73328	Armenia	Church		AM
Karapet Surb	45.23053	39.68189	Armenia	Church		AM
Hrashkabnak	45.20709	39.68048	Armenia	Church		AM
Tarsayich Ishkhani	45.1889	39.72369	Armenia	Historical Site		AM
P’okas Surb	45.23053	39.6861	Armenia	Church		AM
Madat’i Khach’k’arach’	45.21112	39.62793	Armenia	Monument		AM
Portavor	45.20569	39.6347	Armenia	Monument		AM
Srvanesi	45.20007	39.67511	Armenia	Church		AM
T’ukh Manuk	45.34729	39.66949	Armenia	Church		AM
Vardablur	45.3653	39.66809	Armenia	Historical Site		AM
Sat’zhayrr	45.27087	39.7265	Armenia	Historical Site		AM
Gnishika	45.27508	39.66949	Armenia	Church		AM
Gnishkakhach’	45.30829	39.67511	Armenia	Church		AM
Hrasekaberd	45.30011	39.67511	Armenia	Historical Site		AM
Anna Surb	45.40692	39.74731	Armenia	Church		AM
Mozi	45.4043	39.7279	Armenia	Monument	184	AM
Ch’rrayi	45.4043	39.74731	Armenia	Church		AM
Joj Aghbyuri	45.40832	39.74872	Armenia	Church		AM
Alaverdyank’	45.46948	39.68951	Armenia	Monument		AM
Gevorg Ch’aushi	45.45709	39.68848	Armenia	Monument		AM
Surb	45.45569	39.69452	Armenia	Church		AM
Trdat Surb	45.45709	39.69171	Armenia	Church		AM
Arini Surb	45.47089	39.71668	Armenia	Church		AM
Gomadzori	45.49731	39.73328	Armenia	Church		AM
Glkhaveri Surb	45.43189	39.63751	Armenia	Church		AM
Khach’oyi Lcheri	45.43189	39.64868	Armenia	Church		AM
Zohvatsneri	45.41528	39.54169	Armenia	Monument		AM
Dambaranadasht	45.29871	39.66107	Armenia	Archaeological Site		AM
Hrashkaberd	45.27789	39.62512	Armenia	Historical Site		AM
Aregi Surb	45.41949	39.66388	Armenia	Church		AM
Gerezmanneri Surb	45.4375	39.65289	Armenia	Church		AM
Hakob Surb	45.41687	39.65008	Armenia	Church		AM
Mets Surb	45.44311	39.65149	Armenia	Church		AM
Shoghakat’	45.4361	39.64868	Armenia	Church		AM
Lenini	45.49731	39.7279	Armenia	Monument		AM
Mayradurk’i	45.41949	39.65973	Armenia	Church		AM
Arts’akhyan Paterazmum Zohvats Azatamartikneri	45.48053	39.52508	Armenia	Monument		AM
Bardzrunu	45.48053	39.52087	Armenia	Church		AM
Gevorg Surb	45.48328	39.51532	Armenia	Church		AM
Nikoghos Surb	45.37653	39.62231	Armenia	Church		AM
Aghopeni Zhayrrap’or	45.34869	39.59308	Armenia	Church		AM
Khndzoruti	45.37909	39.5639	Armenia	Church		AM
Getikvank’i	45.51672	39.92792	Armenia	Church		AM
Khach’ Surb	45.62231	39.76532	Armenia	Church		AM
Khach’k’arach’eri Glukh	45.62231	39.76813	Armenia	Monument		AM
Srtin Mot	45.61249	39.75848	Armenia	Monument		AM
Hoktemberyan Heghap’okhut’yan 50-amyakin	45.66388	39.83612	Armenia	Monument		AM
Gndevank’	45.61108	39.75848	Armenia	Historical Site		AM
Averakats’	45.53748	39.80292	Armenia	Monument		AM
Khach’k’arach’tap’i	45.53748	39.80829	Armenia	Monument		AM
Poghos-Petros Surb	45.53888	39.8125	Armenia	Monument		AM
Grigor Lusavorich’ Surb	45.54028	39.76532	Armenia	Church		AM
Kapuyt Berd	45.55151	39.77368	Armenia	Historical Site		AM
Koshakhach’	45.54871	39.75153	Armenia	Monument		AM
Shen	45.30969	40.13068	Armenia	Historical Site		AM
Dashtadzor	45.3139	40.1001	Armenia	Historical Site		AM
Yerkrord Ashkharhamartum	45.3125	40.13751	Armenia	Monument		AM
Mayr Martuni	45.3111	40.14868	Armenia	Monument		AM
Myasnikyan A.	45.3125	40.13892	Armenia	Monument		AM
T’at’oyi	45.35828	40.12231	Armenia	Monument		AM
Khangaruk Zham	45.36389	40.12231	Armenia	Church		AM
Hrrip’sime Surb	45.3529	40.11951	Armenia	Church		AM
Matt’eos K’ahanayi	45.35828	40.11951	Armenia	Monument		AM
Mkhit’ari	45.3501	40.12231	Armenia	Monument		AM
Vank’i Berd	45.36108	40.09448	Armenia	Historical Site		AM
Vank’i Berdi	45.36108	40.09308	Armenia	Church		AM
Alberd	45.2807	40.1001	Armenia	Historical Site		AM
Berdi Glukh	45.30011	40.08209	Armenia	Historical Site		AM
Chgnavor	45.26111	40.06952	Armenia	Church		AM
Shikaveri	45.28332	40.0625	Armenia	Church		AM
Joj Kogh	45.29309	40.09589	Armenia	Historical Site		AM
Grigor Narekats’i Surb	45.37909	40.12091	Armenia	Church		AM
Davit’ Anhaght’	45.36951	40.12653	Armenia	Church		AM
Davit’ Margarei	45.38611	40.12653	Armenia	Monument		AM
Davit’ Surb	45.37372	40.12231	Armenia	Church		AM
Zolakhach’	45.37909	40.12512	Armenia	Monument		AM
Tiknants’	45.44031	40.13208	Armenia	Church		AM
Ksoyi Shek	45.37793	40.12793	Armenia	Church		AM
Harut’yun Surb	45.39447	40.0459	Armenia	Church		AM
Noravank’	45.37909	40.12231	Armenia	Church		AM
K’uyr Ev	45.38348	40.14587	Armenia	Church		AM
T’eyshebaini	45.4751	40.15973	Armenia	Archaeological Site		AM
Itsu Kogher	45.46668	40.1557	Armenia	Archaeological Site		AM
Orogisi	45.49731	40.07928	Armenia	Church		AM
Odzaberd	45.47089	40.16107	Armenia	Historical Site		AM
Matnaberd	45.25293	40.06671	Armenia	Historical Site		AM
Amenap’rkich’	45.26672	40.14313	Armenia	Monument		AM
Amenap’rkich’ Surb	45.26672	40.14032	Armenia	Church		AM
Zhami Durr	45.26672	40.14447	Armenia	Church		AM
Ishkhanagyughi	45.26111	40.12653	Armenia	Church		AM
Ishkhanavank’	45.26392	40.12793	Armenia	Church		AM
Ishkhanavank’i Khach’k’arach’	45.26111	40.12793	Armenia	Monument		AM
Kot’avank’	45.26111	40.14172	Armenia	Church		AM
Joj Kulon	45.28192	40.14172	Armenia	Archaeological Site		AM
Suk’ias Surb	45.26672	40.13892	Armenia	Church		AM
Vardan Surb	45.27368	40.14172	Armenia	Church		AM
K’efoyi Khach’er	45.26392	40.14172	Armenia	Monument		AM
Aloyi Kogh	45.33331	40.10968	Armenia	Historical Site		AM
Kordi Kogh	45.32788	40.10828	Armenia	Historical Site		AM
Hakob Kazmoghi	45.32928	40.13611	Armenia	Monument		AM
Varrvarra Surb	45.33069	40.13751	Armenia	Church		AM
Artsvadzori	45.45148	40.02368	Armenia	Church		AM
Arts’akhyan Paterazmum	45.43329	40.1347	Armenia	Monument		AM
Berdaver	45.45831	40.11108	Armenia	Historical Site		AM
Berdaveri	45.45831	40.10968	Armenia	Church		AM
Gndiglukh	45.45428	40.07092	Armenia	Church		AM
Grigor Surb	45.46808	40.09729	Armenia	Church		AM
T’alalots’	45.44311	40.13611	Armenia	Church		AM
Lerrnants’k’i Averakneri	45.45007	40.07233	Armenia	Church		AM
Khach’i Tap’	45.45007	40.13348	Armenia	Archaeological Site		AM
Tsaghkavank’	45.45007	40.12793	Armenia	Church		AM
Kapk’	45.4779	40.09308	Armenia	Archaeological Site		AM
Karmir Vank’	45.47089	40.09448	Armenia	Church		AM
Konjolozi P’ul	45.43048	40.1579	Armenia	Church		AM
Hin Geghadzori	45.47369	40.09448	Armenia	Church		AM
Hreshtakapetats’ Surb	45.44452	40.13208	Armenia	Church		AM
Yot’ K’uyr	45.44452	40.12909	Armenia	Monument		AM
Dzori	45.25293	40.12909	Armenia	Church		AM
Sevsari	45.29449	40.0097	Armenia	Archaeological Site		AM
Berdkunk’	45.95569	40.21393	Armenia	Historical Site		AM
Aristakes K’ahanayi	45.87793	40.17651	Armenia	Monument		AM
Yerits’ashen	45.87091	40.17908	Armenia	Church		AM
Abas Beki	45.75409	40.21668	Armenia	Monument		AM
Abrahami	45.75409	40.21948	Armenia	Monument		AM
Ani Ev Shahumi	45.75409	40.21948	Armenia	Monument		AM
Yeghisabet’i	45.75409	40.21948	Armenia	Monument		AM
Emkari	45.75409	40.21668	Armenia	Monument		AM
Chanp’ashayi Ev Step’anosi	45.75409	40.21948	Armenia	Monument		AM
Melik’ Beki	45.75409	40.21668	Armenia	Monument		AM
Mets Egherrni Zoherin	45.76672	40.21948	Armenia	Monument		AM
Mirzayi	45.75409	40.21668	Armenia	Monument		AM
Movsesi Ev Gulumi	45.75409	40.21948	Armenia	Monument		AM
Yavri Beki Ev Gulasari	45.75409	40.21668	Armenia	Monument		AM
Novaghin	45.75409	40.21668	Armenia	Monument		AM
Dovlat’i Ter Sargsi	45.75409	40.21668	Armenia	Monument		AM
Nerk’in Khorzhayi	45.84308	40.11249	Armenia	Church		AM
Shahumi	45.84729	40.11108	Armenia	Monument		AM
Lanjk’	45.82928	40.16949	Armenia	Monument		AM
Samveli	45.81451	40.17511	Armenia	Monument		AM
Asnavori	45.87091	40.20288	Armenia	Monument		AM
Zarmank’	45.87512	40.19733	Armenia	Monument		AM
Hing K’ar	45.88611	40.20288	Armenia	Historical Site		AM
Grigori	45.83612	40.08893	Armenia	Monument	280	AM
Minas Surb	46.2251	39.42511	Armenia	Church		AM
Svarants’i	46.21808	39.3667	Armenia	Church		AM
Ts’uraberd	46.21393	39.35828	Armenia	Historical Site		AM
Petroskavank’i	46.23328	39.4043	Armenia	Church		AM
Kits’k’i	46.10968	39.28748	Armenia	Church		AM
Sanjaravazi	46.11951	39.27087	Armenia	Historical Site		AM
Ajabaji	46.08331	39.25409	Armenia	Church		AM
Orbelyan Ishkhani Mahardzan	46.00848	39.45007	Armenia	Monument		AM
Getat’aghi	46.09448	39.46393	Armenia	Church		AM
Yeghia Surb	46.15289	39.42511	Armenia	Church		AM
Spitak Khach’k’arach’	46.12793	39.41388	Armenia	Monument		AM
Drrnapan	46.13068	39.40289	Armenia	Church		AM
Lori	46.13751	39.39728	Armenia	Church		AM
Lorik Ishkhani Mahardzan	46.12793	39.41388	Armenia	Monument		AM
Orotn	46.13892	39.48608	Armenia	Historical Site		AM
K’oshmayri	46.08331	39.44171	Armenia	Monument		AM
Aghbyur	44.70007	39.8501	Armenia	Monument		AM
Yeraskhi Marterum Zohvats Azatamartikneri	44.70007	39.8501	Armenia	Monument		AM
Mayrut’yan	44.70007	39.8501	Armenia	Monument		AM
Sargsyan V.	44.70007	39.8501	Armenia	Monument		AM
Zham	44.67651	39.87512	Armenia	Church		AM
Hayrenik’i Nahataknerin	44.68329	39.8529	Armenia	Monument		AM
Ararati 150-amyakin Ev Yerkrord Ashkharhamartum Zohvatsneri	44.70007	39.81671	Armenia	Monument		AM
Zoravar Andraniki	44.70007	39.81671	Armenia	Monument		AM
Shahumyan S.	44.70007	39.81671	Armenia	Monument		AM
Gorr ishkhani	44.73749	39.9043	Armenia	Archaeological Site		AM
Hayrenik’i Pashtpanin	44.59168	39.87372	Armenia	Monument		AM
Gyughi Steghtsman 30-amyakin	44.63348	39.89868	Armenia	Monument		AM
Spitaki Erkrasharzhi Zoheri Ev Arts’akhyan Paterazmum Zohvats Azatamartikneri	44.6709	39.90692	Armenia	Monument		AM
Mets Egherrni Ev Arts’akhyan Paterazmum Zohvats Azatamartikneri	44.6029	39.90149	Armenia	Monument		AM
Budaghyan A.	44.51672	39.98053	Armenia	Monument		AM
Miasnut’yan Khorhrdanishi	44.53748	39.97089	Armenia	Monument		AM
Karmir Avetaran	44.5611	39.96393	Armenia	Church		AM
Sverdlov Ya.	44.58612	39.99731	Armenia	Monument		AM
K’ristoneut’yan 1700-amyakin	44.66388	40.00012	Armenia	Monument		AM
Ach’aGhva	46.30548	39.23187	Armenia	Historical Site		AM
Avetisyan H.	46.4057	39.20569	Armenia	Monument		AM
Garegin NZhdehi	46.39587	39.19171	Armenia	Monument		AM
Davit’ Beki	46.40692	39.21112	Armenia	Monument		AM
Kavarti	46.39728	39.23749	Armenia	Church		AM
Hunakan	46.38348	39.23889	Armenia	Church		AM
Mets EGherrni Ev Erkrord Ashkharhamartum Zohvatsneri	46.39728	39.1861	Armenia	Monument		AM
Mesrop Mashtots’ Surb	46.40832	39.20569	Armenia	Church		AM
Vach’agani	46.37653	39.18048	Armenia	Church		AM
Karmir EGhts’i	46.4223	39.14868	Armenia	Church		AM
Hangats	46.42371	39.14868	Armenia	Church		AM
Harut’yunyan M.	46.41949	39.1723	Armenia	Monument		AM
P’ok’r EGhts’i	46.4209	39.17371	Armenia	Church		AM
ArjaGhbyuri	46.25708	39.13751	Armenia	Church		AM
BaGhaki K’ar	46.2807	39.21393	Armenia	Historical Site		AM
Zevu	46.25568	39.19733	Armenia	Historical Site		AM
T’njumnats’i	46.45831	39.0611	Armenia	Church		AM
Tsanayi	46.4917	39.03332	Armenia	Church		AM
Kemants’i Yerkrord Ashkharhamartum Zohvatsneri	46.41669	39.05548	Armenia	Monument		AM
Mazrayi	46.3515	39.04871	Armenia	Church		AM
Mazrayi‘Yerkrord Ashkharhamartum Zohvatsneri	46.34729	39.0473	Armenia	Monument		AM
Navsi	46.44733	39.0293	Armenia	Church		AM
Shish	46.3501	39.07233	Armenia	Church		AM
Shishkerti‘Yerkrord Ashkharhamartum Zohvatsneri	46.35431	39.07233	Armenia	Monument		AM
Orsk’i	46.34027	39.07373	Armenia	Church		AM
K’sajri	46.34729	39.05829	Armenia	Church		AM
Khustup’i	46.3139	39.12231	Armenia	Church		AM
Krrnasi	46.44031	39.07373	Armenia	Historical Site		AM
Hamulk’i	46.33612	39.09589	Armenia	Historical Site		AM
Mt’nadzori	46.4779	39.00708	Armenia	Church		AM
SGhnasheni	46.49591	39.07092	Armenia	Historical Site		AM
Vahanavank’	46.33069	39.21527	Armenia	Historical Site		AM
Ap’kesi	46.2959	39.00848	Armenia	Church		AM
Verin Vardanidzori	46.26672	39.01947	Armenia	Church		AM
Hayastany Rrusastanin Veramiavorman 150-amyakin	45.95291	39.58155	Armenia	Monument		AM
Safras Ishkhani	45.9387	39.57397	Armenia	Monument		AM
Tsaghik Avetaran	45.9389	39.55548	Armenia	Church		AM
Kron	45.93673	39.55583	Armenia	Church		AM
Barsamants’ Avetaran	45.97229	39.50012	Armenia	Church		AM
Khach’ategh	45.97931	39.51532	Armenia	Monument		AM
Khach’er	45.97079	39.53269	Armenia	Monument		AM
Muts’k’i	45.9043	39.53332	Armenia	Church		AM
Sat’nkan	45.9057	39.53607	Armenia	Church		AM
Gevorg Zoravar Surb	45.91703	39.55432	Armenia	Church		AM
K’och’aberd	45.89032	39.59729	Armenia	Historical Site		AM
Mariam Surb	46.00012	39.5639	Armenia	Church		AM
Zhamatun	45.87793	39.62372	Armenia	Church		AM
Abovyan Khach’k’ar.	44.63068	40.26532	Armenia	Monument		AM
Elarri Yerkrord Ashkharhamartum Zohvatsneri	44.62793	40.26251	Armenia	Monument		AM
Hay-rrus Zhoghovurdneri Barekamut’yan	44.63208	40.26532	Armenia	Monument		AM
Hay-rrus Zhoghovurdneri Barekamut’yan Ev Kotayk’i Patmut’yan	44.63348	40.26532	Armenia	Museum		AM
Virabi Surb	43.91248	40.04169	Armenia	Church		AM
Khach’k’aranjyan A.	43.98053	40.18469	Armenia	Monument		AM
Gyughin Nvirvats	43.90832	40.05548	Armenia	Monument		AM
Darbnents’ Vank’	43.98328	40.06531	Armenia	Church		AM
Khat’un Tiramayr	43.93048	40.0473	Armenia	Church		AM
Arginayi	43.75708	40.24731	Armenia	Archaeological Site		AM
Marshal Baghramyani	43.83069	40.17511	Armenia	Monument		AM
Palariki Surb	43.88208	40.21112	Armenia	Church		AM
Hayastani Azgagrut’yan Petakan	43.95148	40.09308	Armenia	Museum		AM
Azati	43.82928	40.1153	Armenia	Church		AM
Kaputan Berd	43.75409	40.09027	Armenia	Historical Site		AM
Gyughi Himnadrman	43.90008	40.08752	Armenia	Monument		AM
Surb Khach’	44.58612	40.25012	Armenia	Church		AM
Kat’oghike Surb	44.52789	40.48328	Armenia	Church		AM
Ashot Yerkat’	44.57788	40.42511	Armenia	Historical Site		AM
Tsaghkevank’	44.57788	40.44171	Armenia	Church		AM
Nahatakats’ Surb	44.58331	40.41669	Armenia	Church		AM
Tsiranavan	44.63751	40.41949	Armenia	Church		AM
Tsiranavor	44.63611	40.4209	Armenia	Church		AM
T’adevos Arrak’yal	44.58752	40.45428	Armenia	Church		AM
Srbategh	44.59869	40.45148	Armenia	Church		AM
Pahlavunu	44.6557	40.46112	Armenia	Historical Site		AM
Trdat T’agavori	44.63892	40.26111	Armenia	Monument		AM
T’umasyan M.	44.59729	40.25409	Armenia	Monument		AM
Arevmtyan Hayastani Nor Hachni Herosamarti Zoheri	44.58331	40.30011	Armenia	Monument		AM
Mets Murad	44.58331	40.30011	Armenia	Monument		AM
Nor Hachn K’aghak’i Zohvats Azatamartikneri	44.58331	40.30011	Armenia	Museum		AM
Azati Surb	44.7417	40.25848	Armenia	Church		AM
Gevorgents’ Tsarr	44.74591	40.2597	Armenia	Church		AM
P’osi	44.74731	40.26251	Armenia	Church		AM
Kapuyt Khach’	44.67511	40.25708	Armenia	Church		AM
Khach’k’arach’	44.70007	40.32507	Armenia	Monument		AM
Kaptavank’	44.69733	40.32788	Armenia	Church		AM
Kapuyt Khach’k’arach’	44.70007	40.32233	Armenia	Monument		AM
Karmir Khach’	44.66388	40.27789	Armenia	Church		AM
Nshan Surb	44.66107	40.27789	Armenia	Church		AM
Tat’evik Surb	44.65008	40.26532	Armenia	Church		AM
Gvidon Surb	44.60687	40.35828	Armenia	Church		AM
Dzori Surb	44.59027	40.25293	Armenia	Church		AM
Ptenis	44.58893	40.25568	Armenia	Historical Site		AM
Zoravor Surb	44.50848	40.36389	Armenia	Church		AM
Khach’k’arent’i	44.5473	40.39868	Armenia	Monument		AM
Zoravank’	44.53888	40.3529	Armenia	Historical Site		AM
Zoravar	44.50568	40.34729	Armenia	Church		AM
Geghardi Chyugh	44.51947	40.39728	Armenia	Monument		AM
Ankakhut’yan	44.64447	40.40289	Armenia	Monument		AM
Ch’arents’ Ye.	44.64447	40.40289	Armenia	Museum		AM
Bazilik	44.60687	40.38892	Armenia	Church		AM
Mat’evos Arrak’yali	44.60431	40.39172	Armenia	Church		AM
Agaraki	45.21668	40.32092	Armenia	Church		AM
Azaria Sarkavagi	45.14587	40.32373	Armenia	Monument		AM
Melik’ Aghayi Ev Tsnoghats’	45.14587	40.32648	Armenia	Monument		AM
K’anak’erri P’ok’r	45.22369	40.27508	Armenia	Church		AM
Averadasht	45.07788	40.31811	Armenia	Archaeological Site		AM
Avzaberd	45.21668	40.31531	Armenia	Historical Site		AM
Gavarrnu	45.08472	40.32928	Armenia	Church		AM
Saloyi Vank’	45.21808	40.31952	Armenia	Church		AM
Ashot Yerkat’i	45.09729	40.44171	Armenia	Historical Site		AM
Berdkunk’i	45.11108	40.44171	Armenia	Church		AM
Ilkavank’	45.15832	40.26947	Armenia	Church		AM
Spitak Berd	45.11108	40.44592	Armenia	Historical Site		AM
Zak’oyi Surb	45.1181	40.32648	Armenia	Church		AM
Jahralvank’	45.15832	40.26947	Armenia	Church		AM
Kotrats Khach’k’arach’	45.0611	40.45831	Armenia	Monument		AM
Kapk’i Dasht	45.07788	40.27789	Armenia	Archaeological Site		AM
Ukhtaveri	45.01672	40.28473	Armenia	Church		AM
Khach’k’arach’ Ev Sur	45.0459	40.48468	Armenia	Monument		AM
Tsovazardi	45.05011	40.4779	Armenia	Church		AM
Tsaghkavan	45.13892	40.3111	Armenia	Historical Site		AM
Koghi Tak	45.15008	40.31952	Armenia	Historical Site		AM
Shirimk’	45.14172	40.32233	Armenia	Archaeological Site		AM
K’anagegh	45.20569	40.27789	Armenia	Historical Site		AM
Hazakhach’	45.08752	40.4361	Armenia	Monument		AM
Psti Vank’	45.09729	40.4361	Armenia	Church		AM
Azat K’aghak’i	45.1029	40.4209	Armenia	Historical Site		AM
T’amoyi Lich	45.05829	40.26392	Armenia	Archaeological Site		AM
Nazei Surb	45.08069	40.27789	Armenia	Church		AM
Simoyi Surb	45.10687	40.28473	Armenia	Church		AM
Ter Barseghi	45.13611	40.28748	Armenia	Monument		AM
Tirutpeki	45.13892	40.28748	Armenia	Monument		AM
K’yrrk’yrra	45.07373	40.26947	Armenia	Archaeological Site		AM
Yelits’	45.00568	40.48608	Armenia	Historical Site		AM
Aghi Lich	45.06531	40.36951	Armenia	Historical Site		AM
Aghi Lchi	45.06671	40.37091	Armenia	Church		AM
Artsvak’ari Andznagir	45.16248	40.3529	Armenia	Monument		AM
Zhangoyi	45.08069	40.38892	Armenia	Historical Site		AM
Hats’arrat	45.11249	40.34168	Armenia	Historical Site		AM
Hats’arrati Astvatsatsin Surb	45.11951	40.33752	Armenia	Church		AM
Marmos Episkoposi	45.1167	40.33752	Armenia	Monument		AM
Mshkoyi	45.07648	40.36108	Armenia	Historical Site		AM
Jaghats’i Dar	45.10553	40.34869	Armenia	Historical Site		AM
Arrvtnots’i	45.1861	40.36108	Armenia	Historical Site		AM
Artsvak’ar	45.15832	40.3501	Armenia	Historical Site		AM
Arts’akhyan Paterazmum Zohvats Azatamartikneri Ev Spitaki Erkrasharzhi Zoherin	45.1347	40.3515	Armenia	Monument		AM
Grigor Abeghayi	45.15289	40.35687	Armenia	Monument		AM
Dari Glukh	45.15289	40.35553	Armenia	Historical Site		AM
Zhami Dar	45.1723	40.34027	Armenia	Historical Site		AM
Mrrt’ybi Dzor	45.1543	40.33472	Armenia	Historical Site		AM
Sarukhanyan H.	45.13208	40.3515	Armenia	Monument		AM
Step’anos Episkoposi	45.1557	40.35687	Armenia	Monument		AM
Tilichani	45.13068	40.35431	Armenia	Monument		AM
K’och’aryan S.	45.13611	40.3515	Armenia	Monument		AM
Aghelchi Vank’	45.18329	40.38348	Armenia	Church		AM
Atamnabuyzh	45.17511	40.37512	Armenia	Monument		AM
Hakob Episkoposi	45.18329	40.37512	Armenia	Monument		AM
Haravayin	45.18329	40.36951	Armenia	Church		AM
Heri Dar	45.20428	40.37909	Armenia	Historical Site		AM
Hyusisayin	45.18329	40.37372	Armenia	Church		AM
Ghukas Sarkavagi	45.18189	40.37372	Armenia	Monument		AM
Yot’ Aghbyur	45.14728	40.39868	Armenia	Historical Site		AM
Yot’ Aghbyuri	45.14587	40.39728	Armenia	Church		AM
Dimitrov G.	44.48608	40.00848	Armenia	Monument		AM
Kiril Surb	44.48889	40.00848	Armenia	Church		AM
Surb Ojakh	44.48608	40.00293	Armenia	Church		AM
Mkhch’yan L.	44.4917	40.01947	Armenia	Monument		AM
Azatamartikneri	44.48608	40.02789	Armenia	Monument		AM
Sasuniki Dasht	44.36951	40.2279	Armenia	Historical Site		AM
Mokhrablur	44.28332	40.11951	Armenia	Archaeological Site		AM
Arevayin Zhamats’uyts’	44.43846	40.06955	Armenia	Monument		AM
Berk’i Arratut’yan	44.4389	40.06952	Armenia	Monument		AM
T’adevosyan Ye.	44.4389	40.06952	Armenia	Monument		AM
Azaro	44.46527	40.09869	Armenia	Church		AM
T’adevos Arrak’yal Surb	44.46668	40.08893	Armenia	Church		AM
Srbateghi	44.41107	40.1015	Armenia	Monument		AM
Oske Blur	44.38611	40.1167	Armenia	Archaeological Site		AM
Aynt’ap Gyughi 1920t’. Zohvatsneri	44.46527	40.09168	Armenia	Monument		AM
Anatoli Surb	44.45007	40.09168	Armenia	Church		AM
T’urk’menakan Dambaran	44.44171	40.15832	Armenia	Archaeological Site		AM
Ghukasyan Gh.	44.41669	40.12512	Armenia	Monument		AM
Mets Egherrni Ev Spitaki Erkrasharzhi Zoherin	44.46668	40.05829	Armenia	Monument		AM
Lchap’i Blur	44.40289	40.09448	Armenia	Archaeological Site		AM
Osku Surb	44.43329	40.14447	Armenia	Church		AM
Darakert	44.4057	40.10553	Armenia	Archaeological Site		AM
Jrahovit	44.47089	40.04309	Armenia	Archaeological Site		AM
Gyughi Zohvats Martikneri	44.26532	40.15149	Armenia	Monument		AM
Musa Lerran Herosamartin	44.37512	40.1709	Armenia	Monument		AM
Gayane Surb	44.29309	40.15832	Armenia	Church		AM
Zvart’nots’	44.33914	40.16157	Armenia	Museum		AM
Komitasi	44.29449	40.16388	Armenia	Museum		AM
Hovhannisyan H.	44.29449	40.16388	Armenia	Museum		AM
Mashtots’ M.	44.29169	40.16388	Armenia	Monument		AM
Mets Egherrni 50-amyakin	44.29309	40.16107	Armenia	Monument		AM
Mikoyan A.	44.29028	40.16248	Armenia	Monument		AM
Shoghakat’ Surb	44.30689	40.16809	Armenia	Church		AM
Patkanyan Rr.	44.29449	40.16107	Armenia	Monument		AM
K’aghak’ats’iakan Paterazmi Marterum Zohvats Komunarneri	44.28888	40.16248	Armenia	Monument		AM
Aknashen	44.29449	40.09168	Armenia	Archaeological Site		AM
Hin Aknashen	44.28888	40.1001	Armenia	Archaeological Site		AM
Shahnazari Ukht	44.29309	40.09168	Armenia	Church		AM
T’ovma Arrak’yal Surb	44.27508	40.2417	Armenia	Church		AM
Gyughi Steghtsman 50-amyakin	44.38611	40.1889	Armenia	Monument		AM
Ardar Davit’	44.30011	40.23889	Armenia	Archaeological Site		AM
T’argmanch’ats’ Surb	44.29499	40.04391	Armenia	Church		AM
Ch’orut	44.29871	40.23608	Armenia	Archaeological Site		AM
T’t’i Aygi	44.28607	40.08331	Armenia	Archaeological Site		AM
Arts’akhyan Paterazmum Ev Mets Egherrni Zohvatsneri Yerkrord Ashkharhamartum	44.27368	40.11108	Armenia	Monument		AM
Dashti	44.3125	40.2251	Armenia	Historical Site		AM
Step’anos Nakhavka Surb	44.27508	40.2251	Armenia	Church		AM
Kilikiahayerin	44.32928	40.14172	Armenia	Monument		AM
Avazahank’	44.35968	40.1543	Armenia	Archaeological Site		AM
Gyughi Zham	44.26947	40.18048	Armenia	Church		AM
Zohvats Haravslavats’i Odach’uneri	44.26392	40.16528	Armenia	Monument		AM
Bnakateghi Ev Dambaranadasht	44.26672	40.19311	Armenia	Archaeological Site		AM
Hovnanents’ Surb	44.2597	40.19311	Armenia	Church		AM
Shek Avetaran	44.25848	40.18329	Armenia	Church		AM
Yerkrord Ashkharhamartum Gervats Germanats’i Zinvorneri	44.40149	40.17371	Armenia	Monument		AM
Araratyan Dashti Aghjiky	44.38068	40.15149	Armenia	Monument		AM
Arak’su Surb	44.38208	40.15149	Armenia	Church		AM
Kamar	44.37231	40.16388	Armenia	Monument		AM
Aghjka Surb	44.28748	40.20972	Armenia	Church		AM
Mshakut’ayin Blur	44.39032	40.14868	Armenia	Archaeological Site		AM
T’ehleryan S.	44.4751	40.19452	Armenia	Monument		AM
Lorrets’i Sak’oyi	44.48328	40.19452	Armenia	Monument		AM
Mets Egherrni Sebastiayi Zoherin	44.45831	40.1889	Armenia	Monument		AM
Anush Ev Saro	44.48053	40.19171	Armenia	Monument		AM
Aghayan Gh.	44.4903	40.19592	Armenia	Monument		AM
Arabkir Veratsnndi	44.49872	40.20972	Armenia	Monument		AM
Aragilner	44.49872	40.20972	Armenia	Monument		AM
Dzoraberd	44.48749	40.19873	Armenia	Historical Site		AM
Vahagn Vishapak’agh	44.49872	40.20288	Armenia	Monument		AM
Ter-Astvatsatryani	44.4903	40.20831	Armenia	Monument		AM
Orbeli H.	44.48749	40.19311	Armenia	Monument		AM
2750-amyakin Hushardzan	44.491	40.2	Armenia	Monument		AM
Yerkrord Ashkharhamartum Zohvats Davt’ashents’ineri	44.48749	40.21808	Armenia	Monument		AM
Kiraki Surb	44.4751	40.1167	Armenia	Church		AM
Spandaryan S.	44.48608	40.15289	Armenia	Monument		AM
Ter Hovhannesi	44.4729	40.1145	Armenia	Monument		AM
Petrosyan T.	44.49731	40.21948	Armenia	Monument		AM
Bak’vi 1990t’. Zoherin	44.49591	40.18469	Armenia	Monument		AM
Gandzaki 1988t’ Nahatakneri	44.49487	40.18512	Armenia	Monument		AM
Tsovakal Isakovi	44.4931	40.16949	Armenia	Monument		AM
Hayastanum Sovetakan Kargeri Hastatman 30-amyakin	44.4931	40.16949	Armenia	Monument		AM
Hayots’ Ts’eghaspanut’yan T’angaran-institut	44.4903	40.1861	Armenia	Museum		AM
Sumgayit’i 1988t’. Zoherin	44.49512	40.1853	Armenia	Monument		AM
Yerevani Harav-arevmtyan Mutk’y	44.44452	40.15832	Armenia	Monument		AM
Yerrordut’yun Surb	44.44171	40.17511	Armenia	Church		AM
Zatikyan V.	44.44873	40.17511	Armenia	Monument		AM
Hin Ev Nor Malat’ia	44.45831	40.17908	Armenia	Monument		AM
Narekats’i G.	44.45972	40.17908	Armenia	Monument		AM
Shiraz H.	44.44311	40.1723	Armenia	Monument		AM
Srbots’ Vardanants’	44.45831	40.15832	Armenia	Church		AM
Vahagni	44.46948	40.16107	Armenia	Monument		AM
Teryan V.	44.44592	40.17511	Armenia	Monument		AM
Yerkrord Ashkharhamartum Zohvats Rrazmiknerin Hamagyughats’inerits’	44.45148	40.12653	Armenia	Monument		AM
Yerkrord Ashkharhamartum Zohvats Odach’uneri	44.4779	40.12909	Armenia	Monument		AM
Zoravor Khach’ Surb	44.48328	40.13611	Armenia	Church		AM
Emanuel Episkoposi	44.47229	40.11389	Armenia	Monument		AM
Tsiranavor Surb	44.4765	40.11389	Armenia	Church		AM
Shirvanzade A.	44.50012	40.20288	Armenia	Monument		AM
Kuys Varvarra	44.75409	40.12653	Armenia	Church		AM
Nerses K’ahana	44.75012	40.12091	Armenia	Monument		AM
Simoni Surb	44.7793	40.13611	Armenia	Church		AM
Ayr	44.89032	40.06811	Armenia	Church	361	AM
Kak’avaberd	44.86951	40.08069	Armenia	Historical Site		AM
Mkhit’ar Ayrivanets’i	44.81952	40.14032	Armenia	Church		AM
Kznut	44.16949	40.32928	Armenia	Historical Site		AM
Varvarra Surb	44.1723	40.33612	Armenia	Church		AM
Herminei	44.1861	40.26111	Armenia	Church		AM
Aruchi Mets Dambaran	44.08331	40.2973	Armenia	Archaeological Site		AM
Dzori Berd	44.09448	40.28888	Armenia	Historical Site		AM
Shamiram	44.09027	40.27508	Armenia	Archaeological Site		AM
Aghjka Berd	44.16107	40.30829	Armenia	Historical Site		AM
Aragatsotny Seljuknerits’ Azatagrman 1195t’.	44.16107	40.28473	Armenia	Monument		AM
T’evavor Khach’k’arach’	44.16388	40.30548	Armenia	Monument		AM
Sahmanakhach’	44.08893	40.28607	Armenia	Monument		AM
Khoch’er	44.11108	40.34729	Armenia	Historical Site		AM
Dambanat’umb	44.1029	40.28607	Armenia	Archaeological Site		AM
Shamiram T’aguhu	44.09589	40.27508	Armenia	Historical Site		AM
Vrdanes Surb	44.23889	40.34448	Armenia	Church		AM
Areguni	44.20831	40.30292	Armenia	Historical Site		AM
Kosha Saler	44.1875	40.27649	Armenia	Archaeological Site		AM
Kuash	44.16388	40.30829	Armenia	Archaeological Site		AM
Surb Sargis	44.16388	40.30292	Armenia	Monument		AM
K’arhank’i Berd	44.17511	40.28607	Armenia	Historical Site		AM
Surb Hogu Maturr	44.09589	40.2793	Armenia	Church		AM
Garep’os	44.13208	40.34027	Armenia	Archaeological Site		AM
Khach’k’ar	44.15008	40.33209	Armenia	Monument		AM
Mer Zham	44.15008	40.33069	Armenia	Church		AM
Zorakayan	44.20288	40.32788	Armenia	Historical Site		AM
Kosh-Vzhan-Amberd	44.18329	40.29871	Armenia	Archaeological Site		AM
Hay Haydukneri	44.20569	40.2973	Armenia	Monument		AM
Dzyanberd	44.20148	40.33209	Armenia	Historical Site		AM
Motkan Berd	44.21668	40.30829	Armenia	Historical Site		AM
Vzhan	44.19733	40.3139	Armenia	Historical Site		AM
Krrablur	44.2417	40.37793	Armenia	Archaeological Site		AM
K’uyr Ev Eghbayr	44.05829	40.46252	Armenia	Monument		AM
Aghjka	44.05011	40.38068	Armenia	Church		AM
Vank’	44.01111	40.34027	Armenia	Church		AM
Harut’yunyan A.	44.04169	40.26947	Armenia	Monument		AM
T’at’uli	43.6557	40.47931	Armenia	Monument		AM
K’andats Zham	43.67371	40.4751	Armenia	Church		AM
Getap’i	43.6001	40.35828	Armenia	Church		AM
Yesayi Nshets’u	45.33209	39.76251	Armenia	Monument		AM
Yekrrord Ashkharhamartum Zohvatsneri	45.33069	39.75568	Armenia	Monument		AM
Mets Egherrni Ev Arts’akhyan Paterazmum Zohvatsneri	45.33069	39.75513	Armenia	Monument		AM
Momiki	45.32928	39.76111	Armenia	Monument		AM
K’aghak’ats’iakan Krrivnerum Zohvatsneri	45.33331	39.76532	Armenia	Monument		AM
Shiraz	45.31811	39.86389	Armenia	Historical Site	69	AM
Ch’rri Zhamatun	45.32507	39.8681	Armenia	Church		AM
Gomavank’	45.2793	39.7973	Armenia	Church		AM
Prroshaberd	45.37793	39.83069	Armenia	Historical Site		AM
Spitakavor	45.3653	39.82788	Armenia	Church		AM
Vardani	45.33728	39.77508	Armenia	Historical Site		AM
Yeghrdi	45.3847	39.83893	Armenia	Church		AM
Nahataki	45.36108	39.87091	Armenia	Church		AM
Ostanik’	45.32648	39.8515	Armenia	Historical Site		AM
Smbataberd	45.33893	39.87231	Armenia	Historical Site		AM
Aratesi	45.44311	39.90692	Armenia	Church		AM
Kalasari	45.42371	39.8847	Armenia	Church		AM
Hermoni	45.40008	39.87512	Armenia	Historical Site		AM
Sahak Surb	45.40562	39.87262	Armenia	Church		AM
Ahekaberd	45.40008	39.75092	Armenia	Historical Site		AM
Berdajur	45.40289	39.75092	Armenia	Historical Site		AM
Gvoyi	45.41669	39.76392	Armenia	Church		AM
Naveri	45.4779	39.8139	Armenia	Monument		AM
Vayots’ Sari	45.49872	39.80011	Armenia	Church		AM
Aghvan	45.26947	39.80408	Armenia	Church		AM
Angegh	45.29449	39.79791	Armenia	Church		AM
Ynkuzek	45.30829	39.83893	Armenia	Church		AM
Dzmerran	45.28748	39.85553	Armenia	Church		AM
Poghos Surb	45.27368	39.91248	Armenia	Church		AM
P’osoyi Surb	45.2973	39.83209	Armenia	Church		AM
Sevazhayrri	45.48053	39.91107	Armenia	Church		AM
Verin	45.3667	39.79169	Armenia	Museum		AM
K’araglkhi	45.27228	39.89728	Armenia	Church		AM
Arrinji	45.55151	39.72369	Armenia	Church		AM
Artavani	45.6167	39.6557	Armenia	Church		AM
Gndevazi	45.61108	39.74872	Armenia	Historical Site		AM
Srbots’	45.61389	39.74872	Armenia	Church		AM
Zarrit’ap’i	45.51672	39.63611	Armenia	Church		AM
Ishkhani	45.51532	39.59729	Armenia	Monument		AM
Shirmalanj	45.5097	39.59448	Armenia	Monument		AM
Surb Avetaran	45.50848	39.59869	Armenia	Church		AM
Fidayinneri	43.91809	40.33069	Armenia	Monument		AM
Gyughaberd	43.87091	40.38751	Armenia	Historical Site		AM
T’alini Mets Dambaran	43.88611	40.38892	Armenia	Archaeological Site		AM
Kat’oghike	43.87793	40.38751	Armenia	Church		AM
Kuys Sandukht	43.87512	40.38751	Armenia	Church		AM
K’aravanatun	43.88611	40.37653	Armenia	Monument		AM
Berdi Kal	43.91949	40.4389	Armenia	Historical Site		AM
Ashot Yerkat’i Amarranots’	43.91669	40.32373	Armenia	Historical Site		AM
Garrnhovit	43.95569	40.4931	Armenia	Historical Site		AM
Yeghniki	43.94452	40.40832	Armenia	Church		AM
Andzavakhach’	43.94171	40.47089	Armenia	Monument		AM
Artenii	43.94171	40.47369	Armenia	Monument		AM
Baghdasaryan A.	43.80829	40.38611	Armenia	Monument		AM
Karapetyan S.	43.80689	40.38751	Armenia	Monument		AM
Dashtents’ Khach’k’ar.	43.9765	40.39172	Armenia	Monument		AM
Kat’naghbyuri	43.9765	40.38348	Armenia	Monument		AM
Mets Egherrni Yerkrord Ashkharhamartum Zohvatsneri	43.9779	40.39172	Armenia	Monument		AM
Tsaghkasar	43.9223	40.4779	Armenia	Archaeological Site		AM
Arts’akhyan Paterazmum Zohvats Azatamartikner‘ Arshavir Aslanyani Ev Gevorg T’orosyani	43.96808	40.4361	Armenia	Monument		AM
Zak’ari Berd	43.95569	40.36389	Armenia	Historical Site		AM
Shurjpari	43.93329	40.38068	Armenia	Monument		AM
Tigran Surb	43.94733	40.38068	Armenia	Church		AM
Astvatsatsin Surb Nshan	43.89172	40.44733	Armenia	Monument		AM
Gmbet’	43.89172	40.45007	Armenia	Church		AM
Yerkrasharzhits’ Zohvats Erekhaneri	43.86108	40.45972	Armenia	Monument		AM
T’eyleryan S.	43.87653	40.4389	Armenia	Monument		AM
Fidayi Arkha Zoriki	43.8847	40.44873	Armenia	Monument		AM
Sevaberd	43.99591	40.33069	Armenia	Historical Site		AM
Shgharshik	43.97229	40.41388	Armenia	Historical Site		AM
Ghazar Surb	44.1167	40.13348	Armenia	Church		AM
K’ristos	44.1167	40.13348	Armenia	Monument		AM
Yeghoyi Surb	44.0625	40.07233	Armenia	Church		AM
Haryan T’.	44.15008	40.04169	Armenia	Monument		AM
Zhami Bak	44.17908	40.03332	Armenia	Church		AM
Vaniki Surb	44.18329	40.10828	Armenia	Church		AM
Zohvats Azatamartik Gevorg Makaryani	44.09027	40.1001	Armenia	Monument		AM
Fidayineri	44.02087	40.10828	Armenia	Monument		AM
Srbi Aghbyur	44.20831	40.07507	Armenia	Church		AM
Papei Mot	44.19592	40.05151	Armenia	Archaeological Site		AM
Sev Blur	44.08893	40.12512	Armenia	Archaeological Site		AM
Yot’ Bagin	44.03332	40.08069	Armenia	Archaeological Site		AM
Arts’akhyan Paterazmum Zohvats Azatamartik Mayis Minasyani	44.19311	40.05151	Armenia	Monument		AM
Seyrani	44.15289	40.23889	Armenia	Church		AM
Nor Yedesahayeri	44.13611	40.2251	Armenia	Monument		AM
K’asakh	44.23468	40.13611	Armenia	Archaeological Site		AM
Nigatun	44.23328	40.22369	Armenia	Historical Site		AM
Kghzyak-blur	44.24731	40.10968	Armenia	Archaeological Site		AM
Aghvesak’ar	44.2417	40.2279	Armenia	Archaeological Site		AM
Karmravor	44.2417	40.2279	Armenia	Church		AM
Hamami Surb	44.23053	40.12653	Armenia	Church		AM
Mekhblur	44.21393	40.21393	Armenia	Archaeological Site		AM
Metsamori	44.1889	40.12512	Armenia	Museum		AM
Asni	44.94592	39.96252	Armenia	Archaeological Site		AM
Asadi Ev K’och’iki	44.8139	39.7807	Armenia	Monument		AM
Khach’k’arut’abuyn	44.94733	39.96252	Armenia	Monument		AM
Kotsonk’	44.95007	39.96112	Armenia	Historical Site		AM
Jani	44.94873	39.96393	Armenia	Monument		AM
Yeranosi	44.94592	39.92651	Armenia	Church		AM
Zhayrrakhach’	44.95831	39.87909	Armenia	Monument		AM
Karmramorus	44.95007	39.88892	Armenia	Monument		AM
Spitak Vank’	44.94452	39.88892	Armenia	Church		AM
1930-1940t’t’. Brrnut’yan Zoherin	44.96112	39.86108	Armenia	Monument		AM
Margadzori	44.8501	39.8681	Armenia	Church		AM
Tigranashen	44.94452	39.78473	Armenia	Monument		AM
Badalyan V.	44.77508	39.77508	Armenia	Monument		AM
Darpas	44.9917	39.8139	Armenia	Church		AM
Mets	44.99872	39.82507	Armenia	Monument		AM
Yot’ Eghbor	44.99731	39.8111	Armenia	Church		AM
Spitaki Erkrasharzhi Ev Avarayri Chakatamarti Zoherin Mets Egherrni	44.79449	39.79449	Armenia	Monument		AM
Aghk’at Zham	44.99872	39.82233	Armenia	Church		AM
Tap’i	44.8653	39.96393	Armenia	Church		AM
Tap’i Berd	44.86389	39.96252	Armenia	Historical Site		AM
Urtsi Berd	44.28208	39.25709	Armenia	Historical Site		AM
1990t’. Erdman Araroghut’yan Masnakits’neri	44.78332	39.82288	Armenia	Monument		AM
Aghavnatun	44.2445	40.23052	Armenia	Historical Site		AM
Lusaghbyur	44.32507	40.49731	Armenia	Church		AM
Khaltoyi Berder	44.31531	40.49872	Armenia	Historical Site		AM
Kenats’ Tsarr	44.3501	40.48889	Armenia	Church		AM
Aveberd	44.3667	40.34168	Armenia	Historical Site		AM
Berdijevan	44.37512	40.44452	Armenia	Historical Site		AM
Karmir Darer	44.4057	40.43329	Armenia	Archaeological Site		AM
Yernjak	44.45007	40.45831	Armenia	Historical Site		AM
Lazgi Aghbyur	44.44031	40.44452	Armenia	Church		AM
Khach’aghbyur	44.33893	40.47931	Armenia	Church		AM
Khudoyi Narek	44.36951	40.46948	Armenia	Church		AM
Baghnevank’	44.40973	40.40832	Armenia	Church		AM
Gndak’ar	44.41107	40.36951	Armenia	Historical Site		AM
Kond	44.27228	40.37653	Armenia	Historical Site		AM
Jrambar	44.44171	40.49872	Armenia	Archaeological Site		AM
Kat’naghbyur	44.26672	40.35553	Armenia	Church		AM
P’ok’r Vank’	44.26813	40.35553	Armenia	Church		AM
Areni	44.41388	40.33612	Armenia	Historical Site		AM
Zargarents’ Zham	44.37909	40.33612	Armenia	Church		AM
T’aghiadyan M.	44.37231	40.32788	Armenia	Monument		AM
T’ek’eyan V.	44.37793	40.33612	Armenia	Monument		AM
Khach’aygi	44.37091	40.30151	Armenia	Archaeological Site		AM
Tsakk’ar	44.36951	40.30151	Armenia	Monument		AM
Marine Surb	44.36249	40.31049	Armenia	Church		AM
Sisakyan N.	44.36432	40.29871	Armenia	Monument		AM
Azatamartik Azizbekyan K.	44.28473	40.30292	Armenia	Monument		AM
Hazarapet	44.26111	40.30829	Armenia	Church		AM
Tegher	44.25153	40.32648	Armenia	Archaeological Site		AM
Amberdi Azatagrman	44.26392	40.35553	Armenia	Monument		AM
Gazannots’	44.39447	40.40832	Armenia	Historical Site		AM
Koghi Dar	44.38611	40.40008	Armenia	Historical Site		AM
Bazmaghbyur	44.30829	40.32928	Armenia	Historical Site		AM
T’akia	44.3111	40.33331	Armenia	Historical Site		AM
Amrots’ik Byurakanu	44.26392	40.33069	Armenia	Historical Site		AM
Antarrut	44.27228	40.34729	Armenia	Historical Site		AM
Artavazdik	44.26392	40.33612	Armenia	Church		AM
Horoyents’ Zham	44.37653	40.33209	Armenia	Church		AM
Soghoyents’ Zham	44.38208	40.33069	Armenia	Church		AM
Alur Aghi	44.32928	40.36108	Armenia	Historical Site		AM
Oskehati Dambaranadasht	44.27368	40.27368	Armenia	Archaeological Site		AM
Badali Zham	44.27789	40.26111	Armenia	Church		AM
Chermak	44.28888	40.25568	Armenia	Historical Site		AM
Khach’k’arach’er	44.39868	40.38068	Armenia	Monument		AM
Sion Surb	44.40008	40.38068	Armenia	Church		AM
Orkovi Berd	44.25293	40.34448	Armenia	Historical Site		AM
Ushi	44.36108	40.3501	Armenia	Historical Site		AM
Ara Geghets’iki	44.30969	40.33331	Armenia	Historical Site		AM
Van-Vaspurakani Chakatamarti	44.31671	40.2973	Armenia	Monument		AM
Verin Naver	44.31671	40.3111	Armenia	Archaeological Site		AM
P’arpets’i Gh.	44.31811	40.33209	Armenia	Monument		AM
Aghkunts	44.39172	40.34729	Armenia	Church		AM
Mets Egherrni Ev Sumgayit’i Zoherin	44.38611	40.34729	Armenia	Monument		AM
Narekats’i Surb	44.39032	40.34448	Armenia	Church		AM
Amatuni V.	44.31671	40.25848	Armenia	Monument		AM
Didi Kond	44.31952	40.26111	Armenia	Historical Site		AM
Morik Kayser	44.31952	40.27228	Armenia	Monument		AM
Sasunik	44.33069	40.26111	Armenia	Archaeological Site		AM
Oshakan	44.33069	40.26111	Armenia	Archaeological Site		AM
Anhayt Korats Karot Mkrtch’yani	44.4361	40.25293	Armenia	Monument		AM
Lerrnamerdz	44.2597	40.25848	Armenia	Historical Site		AM
Lenin V.I.	44.26672	40.25848	Armenia	Monument		AM
Sochii Aviavt’ari Zoheri	44.26532	40.2597	Armenia	Monument		AM
Odzablur	44.26947	40.25568	Armenia	Archaeological Site		AM
Etchmiadzin Cathedral	44.29091	40.16177	Armenia	Church	149	AM
Gyughateghi	44.76392	40.5293	Armenia	Church		AM
Yerkrord Ashkharhamartum Zohvats Jrarratts’ineri	44.76392	40.53888	Armenia	Monument		AM
Kapuyt Haz	44.76392	40.51392	Armenia	Church		AM
Melk’onyan M.	44.76392	40.5307	Armenia	Monument		AM
Nzhuyg	44.77508	40.50568	Armenia	Monument		AM
Hneagitakan	44.86249	40.7417	Armenia	Museum		AM
Shahamberyan H.	44.8667	40.7403	Armenia	Museum		AM
Sandukht	44.79028	40.5625	Armenia	Church		AM
Gagarin Yu.	44.8681	40.53607	Armenia	Monument		AM
Harsnak’ar	44.98889	40.55548	Armenia	Monument		AM
K’rrch’ot Khach’k’arach’	44.86249	40.54169	Armenia	Monument		AM
Berdalanj	44.83331	40.58331	Armenia	Historical Site		AM
Tsarav Dzor	44.82507	40.58331	Armenia	Church		AM
1937-49t’t’. Brrnadatvatsneri	44.82092	40.57092	Armenia	Monument		AM
Khach’i Mot	44.78748	40.57092	Armenia	Church		AM
Hagents’	44.78748	40.56671	Armenia	Church		AM
Gandzavank’	44.95007	40.50568	Armenia	Church		AM
Geghuni	44.95007	40.5097	Armenia	Archaeological Site		AM
Narek	44.93048	40.51532	Armenia	Church		AM
Menakkhach’	44.85687	40.57648	Armenia	Church		AM
Astvatsynkal	44.94171	40.63068	Armenia	Church		AM
Avazan	44.96252	40.63348	Armenia	Church		AM
Avazov Aghbyuri	44.9751	40.63348	Armenia	Church		AM
Murats’ani	44.95288	40.63348	Armenia	Monument		AM
Zhami El	44.91388	40.55548	Armenia	Church		AM
Bakunts’ A.	46.34448	39.50848	Armenia	Monument		AM
Surb Grik’or Lusavorich’	46.34448	39.50568	Armenia	Church		AM
Yerkrord Ashkharhamartum Zohvats Zangezurts’inerin	46.33612	39.51813	Armenia	Monument		AM
Zangezur	46.33069	39.50708	Armenia	Monument		AM
Hin Goris	46.3529	39.50708	Armenia	Monument		AM
Spitaki Yerkrasharzhi Zoherin	46.33331	39.51532	Armenia	Monument		AM
Artashi	46.30011	39.53607	Armenia	Monument		AM
Mets Khach’	46.28607	39.53888	Armenia	Church		AM
T’adevos	46.4389	39.50708	Armenia	Church		AM
Vaghaturi	46.3501	39.60828	Armenia	Church		AM
Norakunk’	46.3139	39.53888	Armenia	Church		AM
K’arasheni	46.40832	39.5473	Armenia	Church		AM
Artanish	45.35687	40.50012	Armenia	Historical Site		AM
Dashtalerr	45.34729	40.46668	Armenia	Historical Site		AM
Khach’adzor	45.28607	40.48053	Armenia	Archaeological Site		AM
Gorsh	43.77508	41.01672	Armenia	Historical Site		AM
Berdsar	43.7793	41.07928	Armenia	Historical Site		AM
Amradzor	43.77649	41.00153	Armenia	Historical Site		AM
Hayastan	43.87653	41.02789	Armenia	Monument		AM
Bavra	43.77508	41.12793	Armenia	Historical Site		AM
Zuygaghbyuri Surb	43.90973	41.01813	Armenia	Church		AM
T’evan T’oros	43.80829	41.09168	Armenia	Church		AM
Karmravank’	43.87091	41.00848	Armenia	Church		AM
Krasari	43.82373	41.01532	Armenia	Church		AM
Dari Surb	43.82092	41.05011	Armenia	Church		AM
Surb Yerrordut’yun	43.88611	41.15973	Armenia	Church		AM
Lerrnagorts	46.15832	39.15149	Armenia	Monument		AM
Handi	46.18329	39.15289	Armenia	Church	55	AM
Geghii	46.15692	39.22089	Armenia	Church		AM
Geghva	46.15149	39.2251	Armenia	Historical Site		AM
Kardi	46.10687	39.22089	Armenia	Church		AM
Dalardzori	46.19733	39.15832	Armenia	Church		AM
Kat’narrati Yerkrord Ashkharhamartum Zohvatsneri	46.20831	39.1347	Armenia	Monument		AM
Shlorut	46.18329	39.18329	Armenia	Historical Site		AM
P’khruti	46.2251	39.12512	Armenia	Church		AM
P’khruti Yerkrord Ashkharhamartum Zohvatsneri	46.2265	39.12793	Armenia	Monument		AM
Bakavank’i	46.1001	39.2403	Armenia	Church		AM
Och’et’ii	46.12372	39.20831	Armenia	Church		AM
Khach’ Tsarr	46.12793	39.06671	Armenia	Church		AM
Hin Zhamategh	43.79449	40.66809	Armenia	Church		AM
Averk’	43.98328	40.69452	Armenia	Historical Site		AM
Mishayi	43.89728	40.6723	Armenia	Monument		AM
Surb Luys	43.96112	40.67511	Armenia	Church		AM
Srbi Dasht	43.93329	40.68189	Armenia	Church		AM
Yeghya Surb	43.77649	40.7403	Armenia	Church		AM
Hats’uti	43.76392	40.73608	Armenia	Church		AM
Hin Gerezmanots’	43.77508	40.73889	Armenia	Church		AM
Aygabats’i Kiklopyan	43.90289	40.70148	Armenia	Historical Site		AM
Mariam Mam	43.77087	40.69171	Armenia	Church		AM
Surb Pap	43.76947	40.69873	Armenia	Church		AM
Galstyan B.	43.8501	40.69171	Armenia	Monument		AM
Gharibjanyan B.	43.80292	40.7417	Armenia	Monument		AM
Maraliki Kiklopyan	43.85687	40.6015	Armenia	Historical Site		AM
Ark’ayablur	43.78332	40.65692	Armenia	Historical Site		AM
Ark’ayits’	43.80969	40.62653	Armenia	Historical Site		AM
Ditanots’	43.79309	40.66107	Armenia	Historical Site		AM
Gut’ni	43.77649	40.53748	Armenia	Church		AM
Papoyi Surb	43.85828	40.50568	Armenia	Church		AM
Halivor Pap	43.87909	40.56671	Armenia	Church		AM
Berdik	43.90832	40.51392	Armenia	Historical Site		AM
Geghakhorrik	43.95288	40.51392	Armenia	Historical Site		AM
Yerknak’ar	43.90008	40.53192	Armenia	Monument		AM
T’adevos Surb	43.91528	40.52368	Armenia	Church		AM
Ghazari	43.94592	40.52789	Armenia	Historical Site		AM
Samveladzori	43.9361	40.52368	Armenia	Church		AM
Sogyutlui Chakatamarti Zoherin	43.88611	40.54449	Armenia	Monument		AM
Vank’i Dzor	43.88892	40.5459	Armenia	Church		AM
Lmbatavank’	43.95972	40.60828	Armenia	Historical Site		AM
Koshtoyi K’ar	43.99591	40.65832	Armenia	Monument		AM
Urrumneri Vank’	43.9931	40.65692	Armenia	Church		AM
Hokhei Berd	43.93189	40.55689	Armenia	Historical Site		AM
Nersoyi T’ukh Manuk	43.94452	40.5639	Armenia	Church		AM
Poghos-Petros Mahardzan	43.9389	40.57373	Armenia	Monument		AM
Simoyi Berd	43.94311	40.55548	Armenia	Historical Site		AM
Karmir Zham	43.89032	40.60553	Armenia	Church		AM
Hovnan Odznets’i	43.87653	40.63208	Armenia	Church		AM
Zhayrrapatkerner	44.00012	40.61249	Armenia	Monument		AM
Khach’k’arach’k’ar	44.00012	40.60968	Armenia	Monument		AM
Artsnaberd	43.90008	40.65692	Armenia	Historical Site		AM
Tiramayr	43.97229	40.66388	Armenia	Church		AM
Hazaramer	43.92792	40.65692	Armenia	Monument		AM
Makaravank’i Surb Sion	43.9389	40.57648	Armenia	Church		AM
Armenk’ar	43.91809	40.6001	Armenia	Historical Site		AM
Srbak’ar	43.65973	40.99872	Armenia	Monument		AM
Brsei Surb	45.51111	40.14447	Armenia	Church		AM
Bruti Berd	45.55548	40.14728	Armenia	Historical Site		AM
Zuygaghbyuri	45.55829	40.07373	Armenia	Church		AM
Heri Glkhi	45.55548	40.08209	Armenia	Church		AM
Hnevank’	45.51111	40.14172	Armenia	Church		AM
Hospaki	45.53332	40.09729	Armenia	Church		AM
Shapuhi Her	45.55689	40.08331	Armenia	Archaeological Site		AM
Verin Kot’ii	45.5307	40.1015	Armenia	Church		AM
Tiroj Avetaran	45.50848	40.15149	Armenia	Church		AM
K’olataki Astvatsatsin Surb	45.52508	40.12653	Armenia	Church		AM
Asoyi	45.50568	40.05408	Armenia	Archaeological Site		AM
Karmrasheni	45.50708	40.10553	Armenia	Church		AM
Vasak K’ahanayi	45.5097	40.10828	Armenia	Monument		AM
Anhayt Zinvori	45.7279	40.18048	Armenia	Monument		AM
Khach’k’araghaghut’yan	45.7251	40.1861	Armenia	Monument		AM
Hambardzumyan V.	45.7265	40.18469	Armenia	Monument		AM
Tikna	45.62231	40.09448	Armenia	Church		AM
Gevorgi	45.7403	40.12793	Armenia	Monument		AM
Klor Dar	45.7251	40.15008	Armenia	Archaeological Site		AM
Klor Dari	45.71668	40.14728	Armenia	Monument		AM
Koghat’ev	45.73328	40.16107	Armenia	Historical Site		AM
Imiri	45.68469	40.1167	Armenia	Monument		AM
Khach’k’arach’arri	45.6861	40.1167	Armenia	Monument		AM
Sargsi	45.6861	40.1153	Armenia	Monument		AM
Alek’sanosi Ev Shamami	45.6107	40.15008	Armenia	Monument		AM
Sari Surb	45.59448	40.14172	Armenia	Church		AM
Usekult’ezi	45.61108	40.15008	Armenia	Monument		AM
Hakobi	45.69348	40.1723	Armenia	Monument		AM
Srbavayr	45.6889	40.17371	Armenia	Monument		AM
Bet’ghehem	45.69733	40.16107	Armenia	Church		AM
Muradi Khach’k’arach’	45.70288	40.1557	Armenia	Monument		AM
Muradi Khach’	45.70288	40.16107	Armenia	Historical Site		AM
K’rrer	45.70288	40.16388	Armenia	Archaeological Site		AM
Arkuki	45.62793	40.17908	Armenia	Historical Site		AM
Mirzi	45.62231	40.18189	Armenia	Monument		AM
Averzham	45.59168	40.16669	Armenia	Church		AM
Arei Averak	45.55292	40.1723	Armenia	Archaeological Site		AM
T’umoyi Gevoyi	45.58331	40.16248	Armenia	Monument		AM
Hayrei Averakner	45.5639	40.16949	Armenia	Archaeological Site		AM
Chgnavori Vank’	45.57788	40.09589	Armenia	Church		AM
Ts’ekhuti	45.59308	40.11389	Armenia	Church		AM
K’are Durr	45.59027	40.16248	Armenia	Church		AM
Hovhannes Sarkavagi	45.60968	40.11951	Armenia	Monument		AM
Paruyri	45.67792	40.19171	Armenia	Monument		AM
Aghabeki	45.6875	40.19031	Armenia	Monument		AM
Avagi	45.69171	40.19171	Armenia	Monument		AM
Atisi	45.6889	40.19311	Armenia	Monument		AM
Markosi	45.6861	40.19171	Armenia	Monument		AM
P’irhamzi	45.6889	40.19171	Armenia	Monument		AM
Bashgyughi	44.00293	40.96393	Armenia	Historical Site		AM
Berdi Khach’	44.02508	40.90692	Armenia	Historical Site		AM
Saraveri	44.03473	40.77228	Armenia	Church		AM
K’arabner	44.00153	40.77368	Armenia	Church		AM
Nansen F.	44.23053	40.82373	Armenia	Monument		AM
Shirakats’i A.	44.21393	40.81952	Armenia	Monument		AM
Rrizhkov N.	44.20569	40.8139	Armenia	Monument		AM
Geghasari	44.18329	40.84168	Armenia	Church		AM
Hakoyi Ukhtak’ar	44.2431	40.87793	Armenia	Church		AM
Galoyan L.	44.20569	40.89587	Armenia	Monument		AM
Markosyan E.	44.20569	40.89447	Armenia	Monument		AM
Patvar	44.19733	40.89728	Armenia	Historical Site		AM
Lerrnavani	44.16107	40.78888	Armenia	Church		AM
Lerrnavani‘Yerkrord Ashkharhamartum Zohvatsneri	44.16107	40.78888	Armenia	Monument		AM
Khach’k’arnkoyan A.	44.02228	40.84027	Armenia	Monument		AM
Khnkoyani	44.02228	40.84168	Armenia	Church		AM
Tsaghkaberi	44.1015	40.79449	Armenia	Church		AM
Gabrielyanneri Avetaran	44.10553	40.83612	Armenia	Church		AM
Mets Parnu	44.11389	40.83612	Armenia	Church		AM
Shenavani	44.23749	40.8667	Armenia	Church		AM
Jrasheni Dprots’i Zoherin	44.1875	40.78888	Armenia	Monument		AM
Saralanji	44.09168	40.87372	Armenia	Church		AM
Sarahart’i	44.2431	40.90008	Armenia	Church		AM
Aparani Berd	44.34668	40.59692	Armenia	Historical Site		AM
Veratsnund	44.33612	40.6001	Armenia	Monument		AM
Ch’imanis	44.37653	41.00409	Armenia	Church		AM
Step’anavani	44.35553	41.03332	Armenia	Historical Site		AM
Kendageghts’i	44.4361	41.01111	Armenia	Church		AM
Bondarevi	44.40008	41.03748	Armenia	Monument		AM
Berdalanji	44.37793	41.09869	Armenia	Historical Site		AM
Fidayu	44.28332	41.1217	Armenia	Monument		AM
Lok’	44.4043	41.20972	Armenia	Historical Site		AM
Karchalanj	44.37909	41.15832	Armenia	Historical Site		AM
Arshaki Berd	44.30548	41.1861	Armenia	Historical Site		AM
Berdak’aghak’	44.31671	41.19311	Armenia	Historical Site		AM
Dorbantavank’	44.4389	41.1153	Armenia	Historical Site		AM
Yerku Eghbayr	44.33893	41.04449	Armenia	Monument		AM
Aver Berd	44.39172	40.63068	Armenia	Historical Site		AM
Miroyi Hodi	44.32507	40.52789	Armenia	Monument		AM
Ughti K’ar	44.33069	40.64587	Armenia	Archaeological Site		AM
Papei K’ar	44.37653	40.58069	Armenia	Monument		AM
T’evat’oros	44.27228	40.62512	Armenia	Church		AM
Zhamategh	44.30292	40.61951	Armenia	Church		AM
Gharibyan G.	44.30548	40.61389	Armenia	Monument		AM
Horromi T’evk’	44.42511	40.59168	Armenia	Historical Site		AM
Yot’ Verk’	44.4057	40.5639	Armenia	Church		AM
Ch’rrik	44.39447	40.57507	Armenia	Archaeological Site		AM
Vardenisi Dambaranadasht	44.41107	40.55292	Armenia	Archaeological Site		AM
Aparan-2	44.42511	40.51111	Armenia	Historical Site		AM
Eloyi Berd	44.39172	40.51111	Armenia	Historical Site		AM
Hin Berd	44.38068	40.52649	Armenia	Historical Site		AM
Artavazd Surb	44.26672	40.7251	Armenia	Church		AM
Berdshen	44.4223	40.55292	Armenia	Historical Site		AM
Sisiberd	44.60828	40.8501	Armenia	Historical Site		AM
K’arinji	44.69452	40.97369	Armenia	Church		AM
Aleheri	44.53607	40.78332	Armenia	Historical Site		AM
Arshaki	44.53748	40.78607	Armenia	Historical Site		AM
Gandzak’ar	44.54449	40.78332	Armenia	Historical Site		AM
Ditaket	44.66107	40.7973	Armenia	Historical Site		AM
K’och’inyan A.	44.52087	40.80292	Armenia	Monument		AM
Antarramuti	44.5611	40.9389	Armenia	Historical Site		AM
Yergin Khach	44.66669	40.98468	Armenia	Monument		AM
Tsaghkakhach	44.6723	40.97229	Armenia	Church		AM
Norakarruyts’	44.65289	40.96112	Armenia	Church		AM
Sirun Khach	44.66934	40.97071	Armenia	Monument		AM
Surb Glkhi Khach’	44.68048	40.94592	Armenia	Church		AM
Vardapeti Ayr	44.74872	40.87793	Armenia	Historical Site		AM
Bemer	44.63348	40.98053	Armenia	Monument		AM
Kendudem	44.63208	40.96668	Armenia	Monument		AM
Bemi Glukh	44.57507	40.9751	Armenia	Monument		AM
Igatak	44.7265	40.9223	Armenia	Church		AM
Terteri	44.70288	40.95831	Armenia	Church		AM
Horromsim	44.59168	40.9931	Armenia	Church		AM
Mghart’i	44.58331	40.99591	Armenia	Church		AM
Zhami	44.65149	40.93329	Armenia	Church		AM
Khachi Hogher	44.6889	40.9765	Armenia	Church		AM
Berdak	44.66669	40.89172	Armenia	Historical Site		AM
Khach’k’arasbaki	44.61951	40.88751	Armenia	Monument		AM
Dzorageti	44.63751	40.95288	Armenia	Historical Site		AM
Dzoragyughi	44.61389	40.95148	Armenia	Church		AM
K’ir U Akhper	44.6167	40.95709	Armenia	Historical Site		AM
Ageghts’i	44.57233	40.92908	Armenia	Church		AM
Zoravor Tsarr	44.60431	40.91107	Armenia	Monument		AM
Nahatak	44.59168	40.92908	Armenia	Monument		AM
Khach’k’arach’i T’umb	44.56671	40.83331	Armenia	Monument		AM
Khach’imarg	44.52508	40.84729	Armenia	Historical Site		AM
K’araberdi	44.52228	40.84448	Armenia	Church		AM
Nerses Shnorhali Surb	45.14587	40.88068	Armenia	Church		AM
Ukhtategh	44.81811	41.20007	Armenia	Monument		AM
Bardzyal	44.97369	41.16388	Armenia	Church		AM
Gogakhach’	44.91248	41.05292	Armenia	Monument		AM
Zikatari	44.90832	41.11108	Armenia	Historical Site		AM
Kozmani	44.90289	41.13208	Armenia	Historical Site		AM
Koghbak’ari	44.96948	41.16388	Armenia	Church		AM
Kondokhavank’	44.96527	41.15289	Armenia	Church		AM
Shak’ar	44.94171	41.0639	Armenia	Historical Site		AM
Tvarageghi	44.94452	41.15973	Armenia	Church		AM
Bardzryali Otk’	44.98608	41.16388	Armenia	Monument		AM
Bemi Dar	44.98053	41.14447	Armenia	Monument		AM
Bover	44.98187	41.14032	Armenia	Monument		AM
Tsllan	44.99872	41.16669	Armenia	Archaeological Site		AM
Hin Zham	45.00012	41.16669	Armenia	Church		AM
Jukhtageghts’i	44.98187	41.15832	Armenia	Church		AM
K’osigom	44.98749	41.13068	Armenia	Monument		AM
Archisi	44.87231	41.1557	Armenia	Archaeological Site		AM
Berdategh	44.88348	41.1709	Armenia	Historical Site		AM
Eri Glkhi	44.87512	41.16809	Armenia	Monument		AM
Maturridzor	44.8847	41.15832	Armenia	Church		AM
Kaghnu Khach’k’arach’	44.9361	41.21668	Armenia	Monument		AM
Ark’uni	44.9057	41.18329	Armenia	Historical Site		AM
Danieli	44.91388	41.17651	Armenia	Historical Site		AM
Kheli Dzor	44.92511	41.20569	Armenia	Church		AM
Arrak’el Surb	44.96112	41.17792	Armenia	Church		AM
Berdat’aghi	44.98749	41.17371	Armenia	Historical Site		AM
Vardapeti	44.9751	41.17651	Armenia	Church		AM
Vardgeghi	44.95288	41.1875	Armenia	Church		AM
Khramaberd	44.91949	41.23187	Armenia	Historical Site		AM
Khach’i Lanj	44.87653	41.22229	Armenia	Church		AM
Akht’alayi	44.76813	41.15149	Armenia	Historical Site		AM
Arrak’elots’	44.76392	41.15289	Armenia	Church		AM
Lenkt’emuri	44.78607	41.15692	Armenia	Historical Site		AM
Khach’vank’	44.7807	41.14587	Armenia	Church		AM
Tsaghkakhach’	44.7807	41.1557	Armenia	Monument		AM
Kkvi Buyn	44.77508	41.14172	Armenia	Historical Site		AM
Nahataki Vank’	44.78192	41.15008	Armenia	Church		AM
Pahakategh	44.7807	41.15008	Armenia	Historical Site		AM
Garrnak’ar	44.76251	41.1723	Armenia	Monument		AM
Bats’rel	44.85553	41.10828	Armenia	Church		AM
Bemakhach’	44.8501	41.0611	Armenia	Monument		AM
Darbnants’ Chala	44.8501	41.10828	Armenia	Monument		AM
Lorut	44.83893	41.11389	Armenia	Monument		AM
Khach’k’arech’kants’	44.84168	41.11249	Armenia	Monument		AM
Khach’k’arotorvak’ar	44.85828	41.10828	Armenia	Monument		AM
Dzoragyugh	44.85687	41.10553	Armenia	Church		AM
Mikoyi	44.84168	41.11389	Armenia	Monument		AM
Kaghamakhut	44.75848	41.08612	Armenia	Church		AM
Ulakhach’	44.84168	41.19171	Armenia	Monument		AM
Aygekhach’	44.80969	41.1153	Armenia	Church		AM
T’eghuti	44.83893	41.13892	Armenia	Church		AM
Khach’i Sar	44.8501	41.15008	Armenia	Church		AM
Kaytson	44.83612	41.15008	Armenia	Historical Site		AM
Ktrats Bem	44.84027	41.15289	Armenia	Monument		AM
Shnoghi	44.84027	41.14728	Armenia	Church		AM
Talupap	44.79449	41.12091	Armenia	Church		AM
Puchur Khach’k’arach’	45.23328	40.9751	Armenia	Monument		AM
Antarramej	45.12653	40.9751	Armenia	Church		AM
Arshakaberd	45.16107	40.99731	Armenia	Historical Site		AM
Hin Ach’ajur	45.13068	40.99451	Armenia	Church		AM
Makaravank’	45.13208	40.97369	Armenia	Archaeological Site		AM
Pipik Khach’	45.12909	40.97229	Armenia	Church		AM
Arshaviri	45.16388	40.84027	Armenia	Monument		AM
Budur	45.17511	40.84589	Armenia	Historical Site		AM
Buduri Eghts’i	45.17511	40.84308	Armenia	Church		AM
Gandzak’ari	45.15289	40.85431	Armenia	Archaeological Site		AM
T’anik	45.16388	40.83209	Armenia	Historical Site		AM
Khach’vacharr I	45.17651	40.85431	Armenia	Church		AM
Moshut	45.15289	40.83893	Armenia	Church		AM
Verin Artsvazhayrr	45.16669	40.83612	Armenia	Church		AM
Takhtaeghts’i	45.13208	40.81952	Armenia	Church		AM
Arts’akhyan Paterazmum Zohvats Azatamartikeri	45.14032	40.89868	Armenia	Monument		AM
Nzharavank’	45.14032	40.9043	Armenia	Church		AM
Khach’darak	45.19452	40.93329	Armenia	Archaeological Site		AM
Pahakaket	45.09729	40.81671	Armenia	Historical Site		AM
Astghi Blur	45.11108	40.91388	Armenia	Historical Site		AM
Khram	45.05011	40.92651	Armenia	Historical Site		AM
Krrnat’akht	45.10431	40.91248	Armenia	Church		AM
Okon	45.047	40.88102	Armenia	Historical Site		AM
Okonakhach’	45.04828	40.88122	Armenia	Church		AM
Shinakhach’	45.04028	40.79309	Armenia	Church		AM
K’oli Khach’	45.0307	40.78888	Armenia	Church		AM
Aghberaki	45.10828	40.9057	Armenia	Monument		AM
Aygedzori	45.1029	40.91107	Armenia	Church		AM
Kayan Berd	45.05829	40.82233	Armenia	Historical Site		AM
Dzit’hank’	45.1001	40.91248	Armenia	Church		AM
Chgnavori K’ar	45.21668	40.95972	Armenia	Historical Site		AM
Martiros Surb	45.14172	40.84308	Armenia	Church		AM
Mijnashen	45.10687	40.90832	Armenia	Church		AM
Spitakeghts’i	45.10431	40.85431	Armenia	Church		AM
Karmir Areguni	45.50409	40.80689	Armenia	Historical Site		AM
Angin K’ar	45.5307	40.82507	Armenia	Historical Site		AM
Khuts’i Tap’	45.54309	40.81952	Armenia	Church		AM
Minasi	45.54449	40.81671	Armenia	Church		AM
Krrapashti	45.57507	40.87653	Armenia	Archaeological Site		AM
Azatavan	45.57233	40.85553	Armenia	Historical Site		AM
Yeghts’i	45.59589	40.86108	Armenia	Church		AM
Vanakani Menakyats’	45.59168	40.85828	Armenia	Church		AM
Galustk’ar	45.35553	40.59869	Armenia	Historical Site		AM
Matt’eos Yeghets’i	45.3501	40.6167	Armenia	Monument		AM
Verin Chambaraki	45.35553	40.60968	Armenia	Church		AM
Arrustami	45.27228	40.6557	Armenia	Monument		AM
Mughna Khach’	45.2807	40.65973	Armenia	Church		AM
Kotrats Yeghts’i	45.32788	40.64172	Armenia	Church		AM
Shavarshavan	45.25568	40.66528	Armenia	Church		AM
Aghak’ari	45.2793	40.50153	Armenia	Church		AM
Mailants’	46.31952	39.41107	Armenia	Monument		AM
Machi	46.3515	39.36951	Armenia	Church		AM
K’rataki Sb Minas	46.3139	39.40289	Armenia	Church		AM
Ovenu	46.3125	39.38068	Armenia	Church		AM
Anapat	46.44311	39.49731	Armenia	Church		AM
Khndzoresk	46.4389	39.4917	Armenia	Historical Site		AM
Hin Zhayrrap’or	46.44733	39.49872	Armenia	Church		AM
Khoti Vank’	46.33069	39.4361	Armenia	Church		AM
Mrgadzori Khach’	46.33069	39.42908	Armenia	Church		AM
Khach’i Khut’i	46.30011	39.4057	Armenia	Church		AM
Halidzori	46.29449	39.4057	Armenia	Historical Site		AM
Shnher	46.32507	39.42511	Armenia	Historical Site		AM
Shnheri Surb Astvatsatsin	46.32233	39.41669	Armenia	Church		AM
Aghvanii	46.30689	39.35687	Armenia	Church		AM
Ghalandar	46.41528	39.3515	Armenia	Historical Site		AM
Gavazan	46.25153	39.37909	Armenia	Monument		AM
Karmirvank’	46.28888	39.39032	Armenia	Church		AM
Choghtakhach’	46.2807	39.36389	Armenia	Monument		AM
Svrants’ Khach’	46.25848	39.37909	Armenia	Church		AM
Tandzatap’i	46.26392	39.37231	Armenia	Church		AM
But’khach’	46.4765	39.2793	Armenia	Church		AM
Glkhavor	46.4765	39.26813	Armenia	Church		AM
Yerits’vanits’	46.47089	39.25568	Armenia	Historical Site		AM
Hin	46.46393	39.25848	Armenia	Church		AM
Merani	46.4765	39.26532	Armenia	Church		AM
Kapani	46.49872	39.32648	Armenia	Church		AM
Hamleti	46.4223	39.30969	Armenia	Church		AM
Kotrats Eghts’i	46.35431	39.27087	Armenia	Church		AM
Amenasurb	46.39313	39.26947	Armenia	Church		AM
K’ashateghi	46.39587	39.26672	Armenia	Church		AM
Khut’in	46.39447	39.30151	Armenia	Church		AM
Kataren Surb	46.45831	39.27789	Armenia	Church		AM
Ch’ap’nu	46.46112	39.26947	Armenia	Church		AM
Hyuni Arti	46.44452	39.30969	Armenia	Church		AM
K’ari Navi	46.42511	39.28888	Armenia	Church		AM
Hoghari	46.3667	39.27649	Armenia	Church		AM
Hrromants’i	46.35553	39.28192	Armenia	Church		AM
Jukht	46.53888	39.20972	Armenia	Church		AM
Siradzori	46.55011	39.20831	Armenia	Church		AM
Ttpotkin	46.53888	39.20007	Armenia	Monument		AM
Ohana Surb	46.5459	39.20831	Armenia	Church		AM
Spitak Aghbyuri Khach’	46.55408	39.23053	Armenia	Church		AM
Gazar Surb	46.52508	39.2265	Armenia	Church		AM
Khach’	46.50708	39.2431	Armenia	Church		AM
Khach’k’arndzorut	46.50409	39.2403	Armenia	Monument		AM
Sevadan K’ujerd	46.29449	38.9779	Armenia	Church		AM
Aghvank’i	46.32373	38.95709	Armenia	Church		AM
T’osi	46.31671	38.99872	Armenia	Church		AM
Kotrats	46.30689	38.95288	Armenia	Church		AM
Malev	46.30011	38.99731	Armenia	Church		AM
Shvanidzori	46.37372	38.9389	Armenia	Church		AM
Verin Sheni	46.37909	38.95831	Armenia	Church		AM
Sisavan	46.01947	39.52789	Armenia	Church		AM
Aghitu	46.08612	39.51392	Armenia	Monument		AM
Haykadashti	43.6709	40.13751	Armenia	Monument		AM
Shushanik Surb	43.66107	40.2265	Armenia	Church		AM
Hin Ashotavani	45.99872	39.47369	Armenia	Church		AM
Vasakaberd	45.97089	39.46668	Armenia	Historical Site		AM
Khach’krrner	45.18329	40.19873	Armenia	Church		AM
Khonarhvats Surb	45.16388	40.21112	Armenia	Church		AM
Neghots’i	45.17511	40.20972	Armenia	Historical Site		AM
Shoghan Aghbyur	45.13068	40.19873	Armenia	Church		AM
Sofia	45.16388	40.20428	Armenia	Church	129	AM
P’ok’r Dzag	45.19592	40.2417	Armenia	Archaeological Site		AM
P’ok’r Dzagi	45.19592	40.2417	Armenia	Church		AM
Abraham K’ahanayi	45.23608	40.16388	Armenia	Monument		AM
Azaria K’ahanayi Ev Gulp’ali	45.23608	40.16388	Armenia	Monument		AM
Anton K’ahanayi	45.23608	40.16388	Armenia	Monument		AM
Arrak’el K’ahanayi	45.23608	40.16388	Armenia	Monument		AM
Zak’aria Abeghayi	45.23608	40.16388	Armenia	Monument		AM
Isht’amani	45.2417	40.1543	Armenia	Archaeological Site		AM
Ishi Gut’ani	45.20428	40.14447	Armenia	Church		AM
Natari Ev Hovhani Hovhannes K’ahanayi	45.23608	40.16388	Armenia	Monument		AM
Oskan K’ahanayi	45.23608	40.16388	Armenia	Monument		AM
Sarrnaghbyuri	45.15008	40.0611	Armenia	Church		AM
P’shoti	45.18048	40.11249	Armenia	Archaeological Site		AM
Luys Gerezman	45.21252	40.16248	Armenia	Church		AM
Avei Vank’	45.19031	40.13751	Armenia	Church		AM
Parspavank’	45.14587	40.18329	Armenia	Monument		AM
Pichunts’ Khach’	45.19171	40.18469	Armenia	Church		AM
T’amoyi Surb	45.19171	40.12909	Armenia	Church		AM
Mknaveri	45.16388	40.08893	Armenia	Church		AM
Poghosi Gegh	45.18048	40.12512	Armenia	Archaeological Site		AM
Andzavtun	45.16949	40.16528	Armenia	Archaeological Site		AM
Arrak’elots’ Surb	45.18189	40.1723	Armenia	Church		AM
Davit’ Episkoposi	45.19452	40.16809	Armenia	Monument		AM
Ghukas Episkoposi	45.19031	40.16809	Armenia	Monument		AM
Masruts’ Anapat	45.18329	40.16949	Armenia	Church		AM
Martiros K’ahanayi	45.19171	40.1709	Armenia	Monument		AM
Mkrtich’ Menakyats’i	45.1889	40.16949	Armenia	Monument		AM
Pupudari Khach’k’ar	45.17908	40.16669	Armenia	Monument		AM
Selgna	45.17371	40.16107	Armenia	Archaeological Site		AM
Mehogatsi Surb	45.21393	40.06952	Armenia	Church		AM
Gomeri Zham	45.14728	40.19171	Armenia	Church		AM
Tsovaberd	45.16107	40.1861	Armenia	Historical Site		AM
Mughsu Khach’	45.1875	40.1889	Armenia	Church		AM
K’arrat’ev Khach’	45.19311	40.19031	Armenia	Church		AM
K’rrayi	45.20831	40.1889	Armenia	Historical Site		AM
Spitak Banali	45.16809	40.1723	Armenia	Historical Site		AM
Tat’ev	45.1723	40.0097	Armenia	Historical Site		AM
T’mok	45.17511	40.04028	Armenia	Historical Site		AM
Hovtan	45.20972	40.04309	Armenia	Church		AM
Nerk’in Vasakasheni	45.09168	40.1889	Armenia	Church		AM
Avetaran	44.66248	40.24731	Armenia	Church		AM
Hin Gerezmanneri Blur	44.65692	40.24872	Armenia	Historical Site		AM
Garrni	44.73328	40.11108	Armenia	Historical Site		AM
Khach’k’arat’uni	44.74872	40.11951	Armenia	Monument		AM
Khonarh	44.73328	40.12091	Armenia	Church		AM
Kadramite T’aguhu	44.7417	40.12231	Armenia	Monument		AM
Mashtots’ Hayrapeti	44.73749	40.1167	Armenia	Church		AM
Lus Gerezman	44.71948	40.22089	Armenia	Church		AM
K’ristoneut’yan 1700- Amyakin	44.69452	40.20569	Armenia	Monument		AM
Kamarakuys	44.70007	40.23328	Armenia	Church		AM
Kiraknamut	44.70007	40.2403	Armenia	Church		AM
Hnavayr	44.70569	40.23889	Armenia	Archaeological Site		AM
Darbas	44.6557	40.14032	Armenia	Historical Site		AM
Getazati Dprots’i 100-amyakin	44.56671	40.03748	Armenia	Monument		AM
Arts’akhyan Paterazmum Zohvats Sargis K’olozyani	44.51532	40.05829	Armenia	Monument		AM
Mangus	44.65008	40.21668	Armenia	Historical Site		AM
K’osaghbyur	44.6001	40.1861	Armenia	Church		AM
Noramayr	44.50848	40.00153	Armenia	Church		AM
Vardan Zoravar Surb	44.55969	40.0459	Armenia	Church		AM
Tiknuni	44.55829	40.04449	Armenia	Archaeological Site		AM
Arts’akhyan Paterazmum Zohvats Nver Safaryani	44.52087	40.04449	Armenia	Church		AM
Hoghaberdi	44.58612	40.01947	Armenia	Church		AM
Yerkrord Ashkharhamartum Ev Arts’akhyan Paterazmum Zohvatsneri Mets Egherrni Zoheri	44.58331	40.01813	Armenia	Monument		AM
Karmir	44.55011	40.01251	Armenia	Church		AM
Kuys Varrvarra Surb	44.5611	40.03192	Armenia	Church		AM
Daltoni Tun	44.59027	40.01947	Armenia	Archaeological Site		AM
Urmia	44.58612	40.02508	Armenia	Church	120	AM
Karmir Berd	44.51947	40.23328	Armenia	Archaeological Site		AM
Ayvazovski H.	44.52368	40.1861	Armenia	Monument		AM
Anania Arrak’yal	44.51111	40.1861	Armenia	Church		AM
Anmar Krak	44.51251	40.17651	Armenia	Monument		AM
Arts’akhyan Paterazmum Zohvats Mtavorakannerin Ev YePH Usanogh Azatamartikneri	44.53332	40.18048	Armenia	Monument		AM
Babajanyan A.	44.51672	40.18469	Armenia	Monument		AM
Barekamut’yan Dzerrk’er	44.52228	40.1861	Armenia	Monument		AM
Arts’akhyan Paterazmum Zohvats Erkrapahneri	44.58069	40.21948	Armenia	Monument		AM
Yerevani Hyusisayin Mutk’y	44.5639	40.23889	Armenia	Monument		AM
Yntanik’	44.56952	40.1861	Armenia	Monument		AM
Isahakyan A.	44.57568	40.21393	Armenia	Monument		AM
Hovhannisyan A.	44.56531	40.20831	Armenia	Monument		AM
Ninari	44.56952	40.21252	Armenia	Monument		AM
Norchiki	44.58069	40.21112	Armenia	Monument		AM
Soch’ii Aviavt’ari Zoherin	44.58069	40.22009	Armenia	Monument		AM
Varuzhan D.	44.57373	40.21393	Armenia	Monument		AM
K’arrakot’ogh	44.57373	40.21393	Armenia	Monument		AM
Zaryan N.	44.51672	40.20428	Armenia	Monument		AM
Tolstoy L.	44.52228	40.20148	Armenia	Monument		AM
Raffu	44.51111	40.20831	Armenia	Monument		AM
Argishti Ark’ayi	44.53607	40.14172	Armenia	Monument		AM
Erebuni	44.53888	40.14172	Armenia	Historical Site		AM
Sasunts’i Davit’	44.51111	40.1557	Armenia	Monument		AM
Gafeschyan Himnadram	44.51672	40.19311	Armenia	Museum		AM
Gosh M.	44.52087	40.19311	Armenia	Monument		AM
Griboyedov A.	44.51532	40.17371	Armenia	Monument		AM
Yengibaryan L.	44.51111	40.1723	Armenia	Monument		AM
Yerkrord Ashkharhamartum Zohvats Bzhshkakan institutts’inerin	44.52649	40.18848	Armenia	Monument		AM
Yerkrord Ashkharhamartum Zohvats Gyughatntesakan instituti Dasakhosnerin Ev Usanoghnerin	44.52508	40.19031	Armenia	Monument		AM
Yerkrord Ashkharhamartum Zohvats Pionernerin	44.5257	40.18469	Armenia	Monument		AM
Yerkrord Ashkharhamartum Hayastanum Nahatakvats Hungar Rrazmagerineri Ev Hungariayum Zohvats Hay Martikneri	44.52649	40.1911	Armenia	Monument		AM
Zak’yan S.	44.50708	40.17651	Armenia	Monument		AM
T’amanyan A.	44.51532	40.1723	Armenia	Monument		AM
T’umanyan H.	44.51532	40.1861	Armenia	Monument		AM
Zhoghovrdakan Steghtsagortsut’yan Petakan	44.5307	40.19171	Armenia	Museum		AM
Khach’k’arach’atryan A.	44.51532	40.18652	Armenia	Monument		AM
Khach’k’arorenats’i M.	44.52087	40.19311	Armenia	Monument		AM
Kara Balayi	44.51532	40.18048	Armenia	Monument		AM
Halabyan K.	44.51947	40.1889	Armenia	Monument		AM
Hay Ev Hrea Zhoghovurdneri Egherrni Zoherin	44.52008	40.18671	Armenia	Monument		AM
Hayastanum Sovetakan Kargeri Hastatman 20-amyakin	44.50848	40.17651	Armenia	Monument		AM
Hayastanum Sovetakan Kargeri Hastatman 50-amyakin	44.51672	40.19592	Armenia	Monument		AM
harut’yun K’ahana Shmavonyani	44.50891	40.16949	Armenia	Monument		AM
Mamikonyan V.	44.52228	40.20709	Armenia	Monument		AM
Meghapart H.	44.52087	40.1889	Armenia	Monument		AM
Mesrop Mashtots’ Ev Koryun	44.52087	40.19311	Armenia	Monument		AM
Mesrop Mashtots’ Ev Sahak Part’ev	44.52649	40.18189	Armenia	Monument		AM
Mont’ein	44.51947	40.19031	Armenia	Monument		AM
Nalbandyan M.	44.52508	40.18469	Armenia	Monument		AM
Pepoyi	44.5097	40.17371	Armenia	Monument		AM
Jravacharr Patanin	44.51111	40.17432	Armenia	Monument		AM
Rroslin T’.	44.52087	40.19311	Armenia	Monument		AM
Sakharov A.	44.51752	40.17908	Armenia	Monument		AM
Saryan M.	44.51672	40.1875	Armenia	Monument		AM
Sundukyan G.	44.50848	40.17371	Armenia	Monument		AM
Spendiaryan A.	44.51672	40.1861	Armenia	Monument		AM
Step’anyan N.	44.5097	40.17651	Armenia	Monument		AM
Vanets’i Aghjiky	44.51947	40.18329	Armenia	Monument		AM
Veratsnvats Hayastan	44.51947	40.1723	Armenia	Monument		AM
Tat’evats’i G.	44.52087	40.19311	Armenia	Monument		AM
Tigranyan A.	44.52368	40.17651	Armenia	Monument		AM
Tghamardik	44.51611	40.1875	Armenia	Monument		AM
Friki	44.52087	40.17651	Armenia	Monument	379	AM
1937 Brrnadatvatsnerin	44.51727	40.19311	Armenia	Monument		AM
Azatamartik‘ H. Muradyani	44.57092	40.19873	Armenia	Monument		AM
Aghvesaberd	44.55829	40.19592	Armenia	Historical Site		AM
Hayk Bzhshkyants’i	44.56671	40.20007	Armenia	Monument		AM
Hayk Nahapeti	44.56531	40.20428	Armenia	Monument		AM
Nor Nork’ Hamaynk’i 40-amyakin	44.56531	40.20569	Armenia	Monument		AM
Safyan P.	44.56952	40.19873	Armenia	Monument		AM
Tigran Metsi	44.56952	40.19592	Armenia	Monument		AM
Tork’ Angeghi	44.57233	40.19452	Armenia	Monument		AM
Armenakyan A.	44.54169	40.1875	Armenia	Monument		AM
Alishyan Gh.	44.55151	40.09027	Armenia	Monument		AM
Yerkrord Ashkharhamartum Zohvats Nubarashents’ineri	44.55011	40.09027	Armenia	Monument		AM
T’ovmas T’ukhmanyani Ev Mi Khumb Zohvats Ch’nk’ushts’ineri	44.55011	40.08893	Armenia	Monument		AM
Nubaryan N.	44.55011	40.09168	Armenia	Monument		AM
Amirbeki Ev Sat’i P’ashayi	44.53509	40.2229	Armenia	Monument		AM
Anhayt Zinvori Gerezman	44.52508	40.19452	Armenia	Monument		AM
Avetisyan M.	44.54449	40.20709	Armenia	Monument		AM
Arts’akhyan Paterazmum Zohvats Zeyt’uni Azatamartikneri	44.54028	40.20007	Armenia	Monument		AM
Davit’ Anhaght’i	44.53888	40.20007	Armenia	Monument		AM
